state,station_id,name,name_norm,address,suburb,postcode,lat,lng
NSW,1-25EGFEF,United Petroleum Umina,united petroleum umina,"307-313 Ocean Beach Road, UMINA BEACH NSW 2257",UMINA BEACH,2257,-33.511231,151.318092
NSW,1-27WFD0H,United Petroleum Wilberforce,united petroleum wilberforce,"539 Wilberforce Rd, WILBERFORCE NSW 2756",WILBERFORCE,2756,-33.56288,150.83842
NSW,1-2AHQUAN,Toowoon Bay Service Station,toowoon bay service station,"142 Bay Rd, TOOWOON BAY NSW 2261",TOOWOON BAY,2261,-33.360126,151.497039
NSW,1-2AHS0MQ,Metro Petroleum Oakflats,metro petroleum oakflats,"80-82 Central Ave, OAK FLATS NSW 2529",OAK FLATS,2529,-34.562617,150.819412
NSW,1-2AYH9N2,Ampol Foodary Brunswick Heads R/H,ampol foodary brunswick heads r/h,"5 Tweed St, BRUNSWICK HEADS NSW 2483",BRUNSWICK HEADS,2483,-28.538168,153.548694
NSW,1-2AYI8Y1,Ampol Foodary Lambton,ampol foodary lambton,"422 Newcastle Road, NORTH LAMBTON NSW 2299",NORTH LAMBTON,2299,-32.9095591,151.7109683
NSW,1-2AYMU0Y,Ampol Nyngan,ampol nyngan,"39 Pangee St, NYNGAN NSW 2825",NYNGAN,2825,-31.560944,147.191497
NSW,1-2AYNI03,EG Ampol West Ryde,eg ampol west ryde,"924 Victoria Rd, WEST RYDE NSW 2114",WEST RYDE,2114,-33.810887,151.093485
NSW,1-2B7BB1X,TASCO Leeton Vance Rd,tasco leeton vance rd,"44-46 Vance Rd, LEETON NSW 2705",LEETON,2705,-34.54381,146.387014
NSW,1-2B7GTJU,Transwest Fuels,transwest fuels,"286 Manilla St, MANILLA NSW 2346",MANILLA,2346,-30.7397134,150.7162884
NSW,1-2B7HPDR,Transwest Fuels,transwest fuels,"2 Chelmsford St, KOOTINGAL NSW 2352",KOOTINGAL,2352,-31.0560489,151.0475884
NSW,1-2BDPTQH,Powerfuel,powerfuel,"101 Blaxcell St, GRANVILLE NSW 2142",GRANVILLE,2142,-33.842551,151.010602
NSW,1-2BG354P,BP Eastern Creek T/S,bp eastern creek t/s,"1 Wallgrove Rd, Eastern Creek NSW 2766",EASTERN CREEK,2766,-33.81127,150.84995
NSW,1-2BIBC2B,BP Matraville,bp matraville,"585 Bunnerong Rd, MATRAVILLE NSW 2036",MATRAVILLE,2036,-33.963312,151.231804
NSW,1-2BLJH7Z,7-Eleven Thornton,7-eleven thornton,"1 Weakleys Dr, THORNTON NSW 2322",THORNTON,2322,-32.7929856,151.6374608
NSW,1-2CAUREF,Mountain Motors Walcha,mountain motors walcha,"18n Derby St, WALCHA NSW 2354",WALCHA,2354,-30.984604,151.593797
NSW,1-2FN2KKT,South Petrol,south petrol,"48 Illawarra St, PORT KEMBLA NSW 2505",PORT KEMBLA,2505,-34.48657,150.901734
NSW,1-2G2PLSC,CALTEX MUSWELLBROOK,caltex muswellbrook,"42-50 Sydney St, MUSWELLBROOK NSW 2333",MUSWELLBROOK,2333,-32.268367,150.886748
NSW,1-2G595J6,BP Berowra,bp berowra,"111 Berowra Waters Rd, BEROWRA HEIGHTS NSW 2082",BEROWRA HEIGHTS,2082,-33.615454,151.141677
NSW,1-2G7V21L,Ampol Foodary Concord,ampol foodary concord,"87-89 Parramatta Rd, CONCORD NSW 2137",CONCORD,2137,-33.867895,151.099444
NSW,1-2GIS6FM,Bendy Kates,bendy kates,"2a Francis Hollis Dr, TATHRA NSW 2550",TATHRA,2550,-36.724103,149.977408
NSW,1-2GJ0WFI,BP Guildford,bp guildford,"257 Guildford Rd, GUILDFORD NSW 2161",GUILDFORD,2161,-33.85437,150.988836
NSW,1-2H8DCS6,Shell Wyong,shell wyong,"140 Pacific Hwy, WYONG NSW 2259",WYONG,2259,-33.2821101,151.4256232
NSW,1-2H8HZ06,Riverside Co,riverside co,"203 Charlotte Bay St, CHARLOTTE BAY NSW 2428",CHARLOTTE BAY,2428,-32.343233,152.51482
NSW,1-2H8K997,Greenwell Point Service Centre,greenwell point service centre,"85 Greenwell Point Rd, GREENWELL POINT NSW 2540",GREENWELL POINT,2540,-34.907742,150.731929
NSW,1-2H8L2AO,Ampol Bombala Depot,ampol bombala depot,"1 High Street, BOMBALA NSW 2632",BOMBALA,2632,-36.903943,149.2408217
NSW,1-2H8P33P,Ampol Goulburn Depot,ampol goulburn depot,"13 Sloane St, Goulburn NSW 2580",GOULBURN,2580,-34.77423,149.70893
NSW,1-2H8Q7AT,Ampol Bega Depot,ampol bega depot,"36 Lagoon Street, BEGA NSW 2550",BEGA,2550,-36.6685147,149.828596
NSW,1-2H8RJEA,Pearl Energy Greta,pearl energy greta,"122 High St, GRETA NSW 2334",GRETA,2334,-32.675933,151.387434
NSW,1-2H8STZU,BP Tenterfield,bp tenterfield,"69 Rouse St, TENTERFIELD NSW 2372",TENTERFIELD,2372,-29.064999,152.016886
NSW,1-2H8TNWN,Manildra Newsagency & Roadhouse,manildra newsagency & roadhouse,"2 Kiewa St, MANILDRA NSW 2865",MANILDRA,2865,-33.185679,148.687391
NSW,1-2HC43DH,7-Eleven Albion Park Rail,7-eleven albion park rail,"47-57 Princess Highway, ALBION PARK RAIL NSW 2527",ALBION PARK RAIL,2527,-34.552962,150.788927
NSW,1-2IZITG4,Metro Petroleum Chester Hill,metro petroleum chester hill,"172 Hector St, CHESTER HILL NSW 2162",CHESTER HILL,2162,-33.8889,151.005411
NSW,1-2IZMU8R,Ampol Foodary Chinderah,ampol foodary chinderah,"Tweed Valley Way, CHINDERAH NSW 2487",CHINDERAH,2487,-28.256781,153.527876
NSW,1-2IZSFQE,BP Haberfield,bp haberfield,"95-97 Ramsay St, HABERFIELD NSW 2045",HABERFIELD,2045,-33.881623,151.140229
NSW,1-2J022BW,Rural Supplies Coolamon,rural supplies coolamon,"82 Cowabbie St, COOLAMON NSW 2701",COOLAMON,2701,-34.817305,147.200239
NSW,1-2JF13A2,Willawarrin General Store and Post Office,willawarrin general store and post office,"44 Main St, WILLAWARRIN NSW 2440",WILLAWARRIN,2440,-30.929073,152.627128
NSW,1-2JF495G,EG Ampol Goulburn South,eg ampol goulburn south,"Corner Hume Street And Ducks Lane, GOULBURN NSW 2580",GOULBURN,2580,-34.772187499,149.68992537
NSW,1-2JJIT9Q,BP Silverwater,bp silverwater,"Cnr Silverwater Road & Derby Street, SILVERWATER NSW 2128",SILVERWATER,2128,-33.837648,151.046763
NSW,1-2JR49GA,BK Cafe and Fuel,bk cafe and fuel,"70 Court St, MANILLA NSW 2346",MANILLA,2346,-30.748218,150.724537
NSW,1-2JR76E0,Lowes Petroleum Service,lowes petroleum service,"4 Martin St, WILCANNIA NSW 2836",WILCANNIA,2836,-31.562264,143.376225
NSW,1-2JZHT1O,BP Rose Bay Central,bp rose bay central,"777 New South Head Rd, ROSE BAY NSW 2029",ROSE BAY,2029,-33.870581,151.268579
NSW,1-2JZID5Y,Ampol Cooma Truck Stop Polo Flat,ampol cooma truck stop polo flat,"2 Geebung St, POLO FLAT NSW 2630",POLO FLAT,2630,-36.224727,149.147857
NSW,1-2JZN1K1,Ampol Foodary Wyoming,ampol foodary wyoming,"465 Pacific Hwy, WYOMING NSW 2250",WYOMING,2250,-33.409462,151.349979
NSW,1-2JZNXEJ,Oasis Tuncurry,oasis tuncurry,"186 The Lakes Way, TUNCURRY NSW 2428",TUNCURRY,2428,-32.165452,152.493274
NSW,1-2K4Y4WA,Summers Oxley Vale Takeaway & Superette,summers oxley vale takeaway & superette,"171 Manilla Rd, OXLEY VALE NSW 2340",OXLEY VALE,2340,-31.057689,150.895119
NSW,1-2K52OCD,BP Wardell,bp wardell,"32 Fitzroy St, WARDELL NSW 2477",WARDELL,2477,-28.95026,153.465738
NSW,1-2K55NXB,Lawrence General & Liquor Store,lawrence general & liquor store,"1 Richmond St, LAWRENCE NSW 2460",LAWRENCE,2460,-29.499669,153.100149
NSW,1-2KBQ7S7,Emmdale Roadhouse,emmdale roadhouse,"15891 Barrier Highway, COBAR NSW 2835",COBAR,2835,-31.653308,144.268416
NSW,1-2KGCM3Q,Townsend General Store,townsend general store,"1 Scullin St, TOWNSEND NSW 2463",TOWNSEND,2463,-29.463879,153.217733
NSW,1-2KK2W43,EG Ampol Bateau Bay,eg ampol bateau bay,"9 Bay Village Rd, BATEAU BAY NSW 2261",BATEAU BAY,2261,-33.373145,151.473789
NSW,1-2KNC3LE,7-Eleven Gateshead,7-eleven gateshead,"13-15 Pacific Highway, GATESHEAD NSW 2290",GATESHEAD,2290,-32.987353,151.69179
NSW,1-2KPM7JD,Ampol Mittagong,ampol mittagong,"115 Main St, MITTAGONG NSW 2575",MITTAGONG,2575,-34.450278,150.445145
NSW,1-2KVWAQI,Nicholson Petroleum,nicholson petroleum,"11 Lower Rankin St, FORBES NSW 2871",FORBES,2871,-33.382469,148.011318
NSW,1-2KVWXNL,Casino Roadhouse,casino roadhouse,"86 Johnston St, CASINO NSW 2470",CASINO,2470,-28.859588,153.05626
NSW,1-2L1GSOA,Reel (Taralga) Pty Ltd,reel (taralga) pty ltd,"58 Bunnaby St, TARALGA NSW 2580",TARALGA,2580,-34.405792,149.819043
NSW,1-2L1L7ST,Ampol Banksmeadow Diesel Stop,ampol banksmeadow diesel stop,"1-3 Penrhyn Rd, BANKSMEADOW NSW 2019",BANKSMEADOW,2019,-33.963415,151.215444
NSW,1-2L1L8D7,Ampol Dubbo North Diesel Stop,ampol dubbo north diesel stop,"Lot 51 Bourke St (newell Hwy) Cnr River St, DUBBO NORTH NSW 2830",DUBBO NORTH,2830,-32.233601,148.611759
NSW,1-2L1LP3Z,Access Fuels Ebor,access fuels ebor,"1 Ebor St, EBOR NSW 2453",EBOR,2453,-30.397839,152.352838
NSW,1-2L1M6UB,Ampol Foodary Strathfield South,ampol foodary strathfield south,"600 Liverpool Rd, STRATHFIELD SOUTH NSW 2136",STRATHFIELD SOUTH,2136,-33.888188,151.074621
NSW,1-2L1MEE3,BP Narellan,bp narellan,"271 Camden Valley Way, NARELLAN NSW 2567",NARELLAN,2567,-34.041804,150.730913
NSW,1-2L5SQVK,Snowy Valley Service Centre,snowy valley service centre,"5332 Kosciuszko Rd, EAST JINDABYNE NSW 2627",EAST JINDABYNE,5332,-36.394047,148.65213
NSW,1-2L5TEAI,Ampol Port Macquarie,ampol port macquarie,"12-14 Bolwarra Rd, PORT MACQUARIE NSW 2444",PORT MACQUARIE,2444,-31.450165,152.885319
NSW,1-2L5TITB,Ampol Foodary Cambridge Park,ampol foodary cambridge park,"Lot 6 Star Court, CAMBRIDGE PARK NSW 2747",CAMBRIDGE PARK,2747,-33.740603,150.71723
NSW,1-2L7WH0O,Coombes Transport,coombes transport,"28 PERRY ST, MENINDEE NSW 2879",MENINDEE,2879,-32.38857726,142.4145289
NSW,1-2L7WHGZ,Aberdare Petroleum,aberdare petroleum,"81 Aberdare Rd, ABERDARE NSW 2325",ABERDARE,2325,-32.84359,151.37448
NSW,1-2LDJBIH,Metro Fuel Ulladulla,metro fuel ulladulla,"74 Princess Highway, ULLADULLA NSW 2539",ULLADULLA,2539,-35.350742,150.475984
NSW,1-2LENQ14,Ampol Foodary Werrington,ampol foodary werrington,"Dunheved Road, WERRINGTON NSW 2747",WERRINGTON,2747,-33.745821,150.741051
NSW,1-2LGXS3A,Shell Oberon,shell oberon,"1 Horace St, OBERON NSW 2787",OBERON,2787,-33.698365,149.859187
NSW,1-2LGYYF8,Sussex Inlet Service Station,sussex inlet service station,"1 Jacobs Dr, SUSSEX INLET NSW 2540",SUSSEX INLET,2540,-35.158315,150.584045
NSW,1-2LNLVZ6,BP Penshurst,bp penshurst,"494 Forest Rd, PENSHURST NSW 2222",PENSHURST,2222,-33.96333,151.090139
NSW,1-2LQSPA2,Ampol Foodary Dural,ampol foodary dural,"917-923 Old Northern Rd, DURAL NSW 2158",DURAL,2158,-33.68313,151.028749
NSW,1-2LQTSD4,Ampol Foodary Cherrybrook,ampol foodary cherrybrook,"67 Shepherds Dr, CHERRYBROOK NSW 2126",CHERRYBROOK,2126,-33.720696,151.045165
NSW,1-2LQU3UZ,Ampol Foodary Ermington,ampol foodary ermington,"560-562 Victoria Road, ERMINGTON NSW 2115",ERMINGTON,2115,-33.81396,151.054799
NSW,1-2LVC9NY,Pearl Energy Clarendon,pearl energy clarendon,"244 Hawkesbury Valley Way, CLARENDON NSW 2756",CLARENDON,2756,-33.60837,150.789218
NSW,1-2LVCA9J,Ampol Foodary Revesby,ampol foodary revesby,"181 The River Rd, REVESBY NSW 2212",REVESBY,2212,-33.955843,151.017295
NSW,1-2M4CVRB,Fuel Plus Harrington,fuel plus harrington,"85 Beach St, HARRINGTON NSW 2427",HARRINGTON,2427,-31.871649,152.682515
NSW,1-2M4CW8D,Ampol Foodary Port Macquarie,ampol foodary port macquarie,"29 Lord St, PORT MACQUARIE NSW 2444",PORT MACQUARIE,2444,-31.433245,152.917056
NSW,1-2M4HGXW,Ampol Foodary Kensington,ampol foodary kensington,"211-213 Anzac Parade, KENSINGTON NSW 2033",KENSINGTON,2033,-33.91465,151.225163
NSW,1-2M4HQ93,BOOST FUEL BARGO,boost fuel bargo,"116-118 Railside Ave, BARGO NSW 2574",BARGO,2574,-34.292913,150.579983
NSW,1-2MDJ6NX,Ampol Foodary Lakemba,ampol foodary lakemba,"516 Punchbowl Rd, LAKEMBA NSW 2195",LAKEMBA,2195,-33.911622,151.073203
NSW,1-2MDP8DV,MOBIL YENDA ROADHOUSE,mobil yenda roadhouse,"30-32 Mirrool Ave, YENDA NSW 2681",YENDA,2681,-34.249503,146.198155
NSW,1-2MDR8S5,United Bulahdelah,united bulahdelah,"9999 Pacific Hwy, BULAHDELAH NSW 2423",BULAHDELAH,9999,-32.386103,152.228612
NSW,1-2MDSLLM,Ampol Foodary Carlingford,ampol foodary carlingford,"131 Pennant Hills Rd, CARLINGFORD NSW 2118",CARLINGFORD,2118,-33.787648,151.027913
NSW,1-2MJ7806,Metro Tuggerah,metro tuggerah,"150 Pacific Hwy, TUGGERAH NSW 2259",TUGGERAH,2259,-33.300491,151.420879
NSW,1-2MN6C39,Ampol Foodary Kellyville,ampol foodary kellyville,"3-5 Windsor Rd, KELLYVILLE NSW 2155",KELLYVILLE,2155,-33.714327,150.960633
NSW,1-2MS04UE,Invergowrie General Store,invergowrie general store,"Invergowrie Store 171 Invergowrie Rd, INVERGOWRIE NSW 2350",INVERGOWRIE,2350,-30.519704,151.528389
NSW,1-2MS571W,Ampol Foodary Rutherford,ampol foodary rutherford,"134-138 New England Highway, RUTHERFORD NSW 2320",RUTHERFORD,2320,-32.720367,151.538027
NSW,1-2MS85Z5,Metro Warners Bay,metro warners bay,"1 Warners Bay Rd, WARNERS BAY NSW 2282",WARNERS BAY,2282,-32.981744,151.646174
NSW,1-2MV1H5E,Ampol Foodary Granville,ampol foodary granville,"144 Parramatta Rd, GRANVILLE NSW 2142",GRANVILLE,2142,-33.830266,151.010762
NSW,1-2MV5AC0,Ampol Denman,ampol denman,"8 Ogilvie St, DENMAN NSW 2328",DENMAN,2328,-32.389648,150.689138
NSW,1-2MXWQBK,Ampol Foodary Belmont North,ampol foodary belmont north,"406 Pacific Hwy, BELMONT NORTH NSW 2280",BELMONT NORTH,2280,-33.024759,151.662385
NSW,1-2MXZ9F7,Ampol Foodary Muswellbrook,ampol foodary muswellbrook,"84-86 Maitland St, MUSWELLBROOK NSW 2333",MUSWELLBROOK,2333,-32.277957,150.897954
NSW,1-2MY0642,Liberty Broadwater,liberty broadwater,"7-9 Pacific Hwy, BROADWATER NSW 2472",BROADWATER,2472,-29.019977,153.423829
NSW,1-2MY06OJ,Ampol Foodary Armidale Girraween,ampol foodary armidale girraween,"6-8 Queen Elizabeth Dr, ARMIDALE NSW 2350",ARMIDALE,2350,-30.503375,151.651003
NSW,1-2MY3EWI,Ampol Foodary Kingsgrove,ampol foodary kingsgrove,"351-357 Stoney Creek, KINGSGROVE NSW 2208",KINGSGROVE,2208,-33.951446,151.092424
NSW,1-2MY4IAC,Ampol Foodary Charlestown,ampol foodary charlestown,"81 Pacific Hwy, CHARLESTOWN NSW 2290",CHARLESTOWN,2290,-32.967285,151.695368
NSW,1-2MY5AN6,Ampol Foodary Armidale Airport,ampol foodary armidale airport,"New England Highway, ARMIDALE NSW 2350",ARMIDALE,2350,-30.532214,151.615881
NSW,1-2MY7YJD,Ampol Foodary Rosebery,ampol foodary rosebery,"321 Gardeners Rd, ROSEBERY NSW 2018",ROSEBERY,2018,-33.922956,151.205899
NSW,1-2N2L2TE,Pearl Energy Cessnock,pearl energy cessnock,"102 Wollombi Rd, CESSNOCK NSW 2325",CESSNOCK,2325,-32.83837,151.343653
NSW,1-2N2SB2W,Metro Glossodia,metro glossodia,"450 Creek Ridge Road, GLOSSODIA NSW 2756",GLOSSODIA,2756,-33.545745,150.794615
NSW,1-2N94MWR,BP Wilton,bp wilton,"1109 Argyle St, WILTON NSW 2571",WILTON,1109,-34.24056,150.699023
NSW,1-2N9XTI4,BP Young Roadhouse,bp young roadhouse,"Young Roadhouse 4623 Olympic Hwy, YOUNG NSW 2594",YOUNG,4623,-34.337558,148.282473
NSW,1-2P3KB8I,BP Ingleburn,bp ingleburn,"Cnr Williamson & McDonald Road, INGLEBURN NSW 2565",INGLEBURN,2565,-33.988541,150.859532
NSW,1-2P3KC06,7-Eleven Revesby South,7-eleven revesby south,"102 Milperra Rd, REVESBY NSW 2212",REVESBY,2212,-33.935593,151.009208
NSW,1-2P3SFCE,Ampol Foodary Manly,ampol foodary manly,"86 Pittwater Rd, MANLY NSW 2095",MANLY,2095,-33.793069,151.285802
NSW,1-2P3T01W,Ampol Foodary Brookvale,ampol foodary brookvale,"740-742 Pittwater Rd, BROOKVALE NSW 2100",BROOKVALE,2100,-33.761424,151.274598
NSW,1-2P47I9X,U-Go Lake Munmorah (self-serve),u-go lake munmorah (self-serve),"1135 Pacific Highway, LAKE MUNMORAH NSW 2259",LAKE MUNMORAH,1135,-33.186409,151.552225
NSW,1-2R0EKCQ,Hillston Hardware Mobil Service Station,hillston hardware mobil service station,"8 Grattan St, HILLSTON NSW 2675",HILLSTON,2675,-33.488033,145.533114
NSW,1-2R0W0HJ,Metro Tamworth,metro tamworth,"360 Armidale Rd, EAST TAMWORTH NSW 2340",EAST TAMWORTH,2340,-31.114077,150.961366
NSW,1-2RCJV9W,Ampol Foodary Lightning Ridge,ampol foodary lightning ridge,"Cnr Onyx St, LIGHTNING RIDGE NSW 2834",LIGHTNING RIDGE,2834,-29.429312,147.974698
NSW,1-2RCL0ML,Ampol Foodary Moree,ampol foodary moree,"54 Alice St, MOREE NSW 2400",MOREE,2400,-29.471495,149.84344
NSW,1-2RQJU7M,White Cliffs Outback Store Pty Ltd,white cliffs outback store pty ltd,"Cnr Keraro Rd & Johnston St, WHITE CLIFFS NSW 2836",WHITE CLIFFS,2836,-31.0204002,143.0403618
NSW,1-2RQLJ0H,Tibooburra Food & Fuel,tibooburra food & fuel,"49 Briscoe St, TIBOOBURRA NSW 2880",TIBOOBURRA,2880,-29.43,142.0111
NSW,1-2TFGSRU,Pacific Mobil,pacific mobil,"11 Hanlon Street, PARKES NSW 2870",PARKES,2870,-33.154183,148.159711
NSW,1-2TPKAMV,Costco Marsden Park (Members only),costco marsden park,"10 Langford Drive, MARSDEN PARK NSW 2765",MARSDEN PARK,2765,-33.722985,150.840858
NSW,1-2UO0O49,Guyra Fourways Service Centre,guyra fourways service centre,"87-89 Bradley St, GUYRA NSW 2365",GUYRA,2365,-30.217283,151.672271
NSW,1-2VBKXZP,Packsaddle Roadhouse,packsaddle roadhouse,"Packsaddle Roadhouse 17242 Silver City Hwy, PACKSADDLE NSW 2880",PACKSADDLE,2880,-30.610225,141.96671
NSW,1-2VBLGLV,Ampol Foodary Waitara,ampol foodary waitara,"59-61 Pacific Highway, WAITARA NSW 2077",WAITARA,2077,-33.710531,151.102447
NSW,1-2VBWIKE,United Terrey HILLS,united terrey hills,"43 Booralie Rd, TERREY HILLS NSW 2084",TERREY HILLS,2084,-33.680181,151.225022
NSW,1-2VBWJ1G,Ampol Foodary Randwick,ampol foodary randwick,"2 Alison Rd, RANDWICK NSW 2031",RANDWICK,2031,-33.906604,151.232031
NSW,1-2VDRPG8,Mobil Five Ways Servo Tumut,mobil five ways servo tumut,"3 Blowering Rd, TUMUT NSW 2720",TUMUT,2720,-35.311298,148.23069
NSW,1-2VDUMXA,Ampol Foodary Wentworthville,ampol foodary wentworthville,"313 Great Western Hwy, SOUTH WENTWORTHVILLE NSW 2145",SOUTH WENTWORTHVILLE,2145,-33.816223,150.971793
NSW,1-2VDXUF0,Metro Petroleum Goulburn,metro petroleum goulburn,"62-68 Clinton Street, GOULBURN NSW 2580",GOULBURN,2580,-34.757136,149.714125
NSW,1-2VH9XRI,BP Nambucca T/C,bp nambucca t/c,"2 Corkwood Rd, VALLA NSW 2448",VALLA,2448,-30.627211,152.972277
NSW,1-2VJJHJ1,Metro Yagoona,metro yagoona,"585 Hume Hwy, YAGOONA NSW 2199",YAGOONA,2199,-33.906106,151.014058
NSW,1-2VJJI52,United Tenterfield,united tenterfield,"94 Rouse St, TENTERFIELD NSW 2372",TENTERFIELD,2372,-29.06241,152.017206
NSW,1-2VOIL60,Ampol Foodary Forresters Beach,ampol foodary forresters beach,"The Entrance, FORRESTERS BEACH NSW 2260",FORRESTERS BEACH,2260,-33.40061,151.468836
NSW,1-2VOK70Q,Metro Petroleum Belmore,metro petroleum belmore,"442 Punchbowl Rd, BELMORE NSW 2192",BELMORE,2192,-33.907933,151.076962
NSW,1-2VTYWXQ,Metro Petroleum Cootamundra,metro petroleum cootamundra,"111 Sutton St, COOTAMUNDRA NSW 2590",COOTAMUNDRA,2590,-34.644482,148.024038
NSW,1-2VWUIZO,Metro Petroleum Heatherbrae,metro petroleum heatherbrae,"206 Adelaide Street, HEATHERBRAE NSW 2324",HEATHERBRAE,2324,-32.780587,151.737605
NSW,1-2VWUJLK,Ampol Foodary Penrith,ampol foodary penrith,"2 Lugard St, PENRITH NSW 2750",PENRITH,2750,-33.734363,150.693335
NSW,1-2WA3LLM,BP Termeil,bp termeil,"1600 Princes Hwy, TERMEIL NSW 2539",TERMEIL,1600,-35.4857525,150.3381923
NSW,1-2WAZ7UQ,Ampol Tahmoor,ampol tahmoor,"2900 REMEMBRANCE DVWY, BARGO NSW 2574",BARGO,2900,-34.24456118,150.57791151
NSW,1-2WAZED6,U-Go Carlingford Court (Self- serve),u-go carlingford court (self- serve),"797 Pennant Hills Road, CARLINGFORD NSW 2118",CARLINGFORD,2118,-33.775823,151.051729
NSW,1-2WB29Y6,Ampol Rutherford Diesel Stop,ampol rutherford diesel stop,"83 Mustang Dr, RUTHERFORD NSW 2320",RUTHERFORD,2320,-32.704828,151.498701
NSW,1-2WB2P89,Ampol Foodary Tempe,ampol foodary tempe,"775 Princes Hwy, TEMPE NSW 2044",TEMPE,2044,-33.925315,151.160059
NSW,1-2WIGRDE,Mobil Muswellbrook,mobil muswellbrook,"49-51 Maitland St, MUSWELLBROOK NSW 2333",MUSWELLBROOK,2333,-32.2721887,150.8900116
NSW,1-2WKOTUU,Ampol Foodary Kogarah,ampol foodary kogarah,"29 President Ave, KOGARAH NSW 2217",KOGARAH,2217,-33.965163,151.14115
NSW,1-2WKVIFK,Metro Petroleum Bellbird,metro petroleum bellbird,"380 Wollombi Rd, BELLBIRD NSW 2325",BELLBIRD,2325,-32.8490598,151.329173147
NSW,1-2WNTP9Y,Ampol Foodary Beacon Hill,ampol foodary beacon hill,"176 Warringah Rd, BEACON HILL NSW 2100",BEACON HILL,2100,-33.753807,151.2602299
NSW,1-2WNWXH1,Liberty Moruya,liberty moruya,"5 Princes Hwy, MORUYA NSW 2537",MORUYA,2537,-35.90459,150.081623
NSW,1-2WRWIYW,Shell Reddy  Express North Richmond,shell reddy express north richmond,"75-78 Bells Line Of Road, NORTH RICHMOND NSW 2754",NORTH RICHMOND,2754,-33.577734,150.718917
NSW,1-2WRYWX0,Eungai Rail Petrol & Diesel,eungai rail petrol & diesel,"8 Station St, EUNGAI RAIL NSW 2441",EUNGAI RAIL,2441,-30.850821,152.9016
NSW,1-2WT65WY,AP Punchbowl,ap punchbowl,"Cnr Dudley St & Punchbowl Rd, PUNCHBOWL NSW 2196",PUNCHBOWL,2196,-33.923055,151.058896
NSW,1-2WYDOZW,Speedway Mt Pritchard,speedway mt pritchard,"348 Elizabeth Dr, MOUNT PRITCHARD NSW 2170",MOUNT PRITCHARD,2170,-33.903154,150.896383
NSW,1-2WZCF07,Shell Goonellabah,shell goonellabah,"753 Ballina Road, GOONELLABAH NSW 2480",GOONELLABAH,2480,-28.8133873,153.3391471
NSW,1-2WZCFM1,Shell Wollongbar,shell wollongbar,"1185 Bruxner Hwy, WOLLONGBAR NSW 2477",WOLLONGBAR,1185,-28.815548,153.403428
NSW,1-2X5YPUL,SHELL WINGHAM SERVO,shell wingham servo,"24 Murray Road, WINGHAM NSW 2429",WINGHAM,2429,-31.8686868,152.3620177
NSW,1-2X7C3SC,7-Eleven Kanwal,7-eleven kanwal,"207-209 Wallarah Rd, KANWAL NSW 2259",KANWAL,2259,-33.2528645,151.4931737
NSW,1-2X8USTW,Andys Garage Bray Park,andys garage bray park,"46-48 Kyogle Rd, BRAY PARK NSW 2484",BRAY PARK,2484,-28.340999,153.374884
NSW,1-2X8XX1D,BP Ulladulla,bp ulladulla,"153 Princess Highway, ULLADULLA NSW 2539",ULLADULLA,2539,-35.362843,150.47273
NSW,1-2XA6ZVK,Ampol Foodary Hamilton,ampol foodary hamilton,"59-63 Tudor Street, HAMILTON NSW 2303",HAMILTON,2303,-32.924642,151.751357
NSW,1-2XD7NYK,U-Go Rozelle (Self - Serve),u-go rozelle (self - serve),"121 Victoria Rd, ROZELLE NSW 2039",ROZELLE,2039,-33.862552,151.168475
NSW,1-2XDCJYE,Ampol Foodary Salt Ash,ampol foodary salt ash,"2893 Nelson Bay Rd, SALT ASH NSW 2318",SALT ASH,2893,-32.786649,151.933639
NSW,1-2XDI9E0,Ampol Foodary Thornleigh,ampol foodary thornleigh,"200-202 Pennant Hills Road, THORNLEIGH NSW 2120",THORNLEIGH,2120,-33.7266,151.08363
NSW,1-2XHX6XS,Norris Park IGA - MOGAS,norris park iga - mogas,"545 Union Rd, NORTH ALBURY NSW 2640",NORTH ALBURY,2640,-36.051254,146.921149
NSW,1-2XHY5XC,Glen Artney Truck Repairs,glen artney truck repairs,"55-67 Armstrong St, WESTDALE NSW 2340",WESTDALE,2340,-31.075069,150.853261
NSW,1-2XUSW9G,Ampol Foodary New Lambton,ampol foodary new lambton,"148 Bridges Rd, NEW LAMBTON NSW 2305",NEW LAMBTON,2305,-32.932783,151.713774
NSW,1-2XUWKCD,Black Stump Service Station,black stump service station,"119 Binnia St, COOLAH NSW 2843",COOLAH,2843,-31.827424,149.715638
NSW,1-2XUWKZB,Coolahs Top Service Station,coolahs top service station,"1a Binnia St, COOLAH NSW 2843",COOLAH,2843,-31.819717,149.725151
NSW,1-2XVO1BV,Mobil Fuel North Haven,mobil fuel north haven,"Shop 1 531 Ocean Dr, NORTH HAVEN NSW 2443",NORTH HAVEN,2443,-31.642115,152.810203
NSW,1-2XXL65Q,Ampol Cameron Park,ampol cameron park,"119 Stenhouse Dr, CAMERON PARK NSW 2285",CAMERON PARK,2285,-32.896448,151.597315
NSW,1-2YAW6MC,Ampol Foodary Berowra,ampol foodary berowra,"12-14 Berowra Waters Rd, BEROWRA NSW 2081",BEROWRA,2081,-33.623381,151.150554
NSW,1-2YE3F6I,Ampol Foodary North Richmond,ampol foodary north richmond,"50 Bells Line of Road, NORTH RICHMOND NSW 2754",NORTH RICHMOND,2754,-33.579975,150.719994
NSW,1-2YIW3XB,Broke Village Store,broke village store,"4 Wollombi St, BROKE NSW 2330",BROKE,2330,-32.750563,151.103588
NSW,1-2YNIXJ8,Thora Store,thora store,"2656 Waterfall Way, THORA NSW 2454",THORA,2656,-30.425036,152.778738
NSW,1-2YNOHTS,Access Fuel,access fuel,"10 Pacific St, CRESCENT HEAD NSW 2440",CRESCENT HEAD,2440,-31.189114,152.974344
NSW,1-2YOO9LS,Mobil South Tamworth,mobil south tamworth,"2 Kathleen St, SOUTH TAMWORTH NSW 2340",SOUTH TAMWORTH,2340,-31.103581,150.918599
NSW,1-2YZ2SJM,BP Nowra,bp nowra,"Corner Princess Highway and Plunkett Street, NOWRA NSW 2541",NOWRA,2541,-34.878761,150.604307
NSW,1-2YZNRGK,Ampol Foodary Swansea,ampol foodary swansea,"126 Pacific Hwy, SWANSEA NSW 2281",SWANSEA,2281,-33.088127,151.638255
NSW,1-2ZCCMH2,Shell Reddy  Express Queanbeyan,shell reddy express queanbeyan,"2 High Street, QUEANBEYAN EAST NSW 2620",QUEANBEYAN EAST,2620,-35.348513,149.243517
NSW,1-2ZCEGX1,Ampol Foodary Narellan,ampol foodary narellan,"NARELLAN RD CNR MAXWELL PL, NARELLAN NSW 2567",NARELLAN,2567,-34.039712,150.743271
NSW,1-2ZF97EE,Metco Merimbula,metco merimbula,"Cnr of Arthur Kaine Drive and Dunns Lane, MERIMBULA NSW 2548",MERIMBULA,2548,-36.896457,149.910851
NSW,1-2ZFG3JI,BP Silverwater South,bp silverwater south,"51 Egerton St, SILVERWATER NSW 2128",SILVERWATER,2128,-33.8363055,151.0478898
NSW,1-2ZILJOF,Ampol Foodary Punchbowl,ampol foodary punchbowl,"1285-1289 Canterbury Rd, PUNCHBOWL NSW 2196",PUNCHBOWL,1285,-33.9314597,151.0596341
NSW,1-2ZJGOOC,Speedway Cammeray,speedway cammeray,"330 Miller St, CAMMERAY NSW 2062",CAMMERAY,2062,-33.8287134,151.2088097
NSW,1-2ZJK3PR,Pearl Energy Wyong North,pearl energy wyong north,"6b 1-10 Amy Close, WYONG NSW 2259",WYONG,2259,-33.266366,151.435641
NSW,1-2ZJSNSM,Liberty Foodmart,liberty foodmart,"54 Ballina Rd, LISMORE NSW 2480",LISMORE,2480,-28.8140206,153.2799107
NSW,1-2ZMX7EO,7-Eleven Marsden Park,7-eleven marsden park,"861 Richmond Road, MARSDEN PARK NSW 2765",MARSDEN PARK,2765,-33.718692,150.846004
NSW,1-2ZP95GU,Speedway South Granville,speedway south granville,"171 Clyde St, SOUTH GRANVILLE NSW 2142",SOUTH GRANVILLE,2142,-33.8474647,151.0129202
NSW,1-2ZPTOCU,Ampol Foodary Murwillumbah,ampol foodary murwillumbah,"1-7 Buchanan St, SOUTH MURWILLUMBAH NSW 2484",SOUTH MURWILLUMBAH,2484,-28.3268979,153.4093121
NSW,1-2ZQERBM,Boland Petroleum,boland petroleum,"101 Gosport St, MOREE NSW 2400",MOREE,2400,-29.476258,149.8475
NSW,1-2ZRSU98,Boland Petroleum,boland petroleum,"1-5 James St, NARRABRI NSW 2390",NARRABRI,2390,-30.3296288,149.7936588
NSW,1-2ZVGLKM,Independent SCONE,independent scone,"236 Kelly St, SCONE NSW 2337",SCONE,2337,-32.0550787,150.8693514
NSW,1-303A6U0,BP Riverstone,bp riverstone,"196 Riverstone Pde, RIVERSTONE NSW 2765",RIVERSTONE,2765,-33.6648441,150.8551245
NSW,1-306IQ7M,Paterson Service Station,paterson service station,"26 King St, King Street, Paterson NSW 2421",PATERSON,2421,-32.598801,151.617956
NSW,1-30TPDKI,Tabourie Tuckerbox,tabourie tuckerbox,"70 Princess Highway, LAKE TABOURIE NSW 2539",LAKE TABOURIE,2539,-35.434948,150.403262
NSW,1-30TSLVZ,Independent Berridale,independent berridale,"68 Jindabyne Rd, BERRIDALE NSW 2628",BERRIDALE,2628,-36.3654151,148.8270027
NSW,1-30UPBZ4,U-Go Taren Point,u-go taren point,"114 Taren Point Rd, TAREN POINT NSW 2229",TAREN POINT,2229,-34.0206558,151.1218918
NSW,1-30WARYL,Billabong Takeaway & LPO,billabong takeaway & lpo,"5 Forbes Street, YEOVAL NSW 2868",YEOVAL,2868,-32.7537301,148.6479241
NSW,1-313B71Q,Ampol Foodary Gilgandra,ampol foodary gilgandra,"6425 Newell Hwy, GILGANDRA NSW 2827",GILGANDRA,6425,-31.7254443,148.6527967
NSW,1-31CZLPA,Lowes Petroleum Service,lowes petroleum service,"13 Midkin St, GARAH NSW 2405",GARAH,2405,-29.0739201,149.6336136
NSW,1-31GMXJT,Ampol Foodary Mudgee,ampol foodary mudgee,"114-118 Church St, MUDGEE NSW 2850",MUDGEE,2850,-32.5942803,149.5876199
NSW,1-31KV9LC,Transwest Fuels,transwest fuels,"50e Fitzroy St, WALCHA NSW 2354",WALCHA,2354,-30.9860216,151.5961045
NSW,1-31LJF0L,TASCO Wentworth,tasco wentworth,"17 Sandwych St, WENTWORTH NSW 2648",WENTWORTH,2648,-34.1067925,141.917973
NSW,1-31PLJWG,Enhance Lithgow,enhance lithgow,"151 Mort St, LITHGOW NSW 2790",LITHGOW,2790,-33.4809941,150.1630228
NSW,1-31S418C,Mobil Nowra,mobil nowra,"215 Kinghorne St, NOWRA NSW 2541",NOWRA,2541,-34.8907243,150.6012047
NSW,1-31UQTVW,Ampol Foodary Coogee South,ampol foodary coogee south,"169-173 Malabar Rd, SOUTH COOGEE NSW 2034",SOUTH COOGEE,2034,-33.9323319,151.2574379
NSW,1-31XQAJU,Ampol Foodary Merrylands,ampol foodary merrylands,"150 Woodville Rd, MERRYLANDS NSW 2160",MERRYLANDS,2160,-33.838025,150.99969
NSW,1-31Z4MKC,Ampol Foodary Alexandria,ampol foodary alexandria,"133 Wyndham Street, ALEXANDRIA NSW 2015",ALEXANDRIA,2015,-33.902032,151.200054
NSW,1-320I6LC,Ampol Foodary Kooringal,ampol foodary kooringal,"265-267 Lake Albert Rd, KOORINGAL NSW 2650",KOORINGAL,2650,-35.1407736,147.3755366
NSW,1-326GFTS,Ampol Foodary Wagga Wagga,ampol foodary wagga wagga,"56 Docker St, WAGGA WAGGA NSW 2650",WAGGA WAGGA,2650,-35.1173827,147.3558074
NSW,1-32765C2,Ampol Foodary Gumly Gumly,ampol foodary gumly gumly,"Caltex 3723 Hwy, GUMLY GUMLY NSW 2652",GUMLY GUMLY,3723,-35.136094,147.442429
NSW,1-3278MUU,Ampol Foodary Lansvale,ampol foodary lansvale,"141-151 Hume Highway Cnr Chadderton St, LANSVALE NSW 2166",LANSVALE,2166,-33.894328,150.957208
NSW,1-329Q73K,Ampol Foodary Cabramatta,ampol foodary cabramatta,"166 John St, CABRAMATTA NSW 2166",CABRAMATTA,2166,-33.8942945,150.9280257
NSW,1-329SSZP,7- Eleven Towradgi,7- eleven towradgi,"162-166 Pioneer Rd, TOWRADGI NSW 2518",TOWRADGI,2518,-34.3841162,150.9064844
NSW,1-329ZUXU,Ampol Foodary Moonbi,ampol foodary moonbi,"16-18 Gill St, MOONBI NSW 2353",MOONBI,2353,-31.0230276,151.0699263
NSW,1-32C12PC,Ampol Foodary Tamworth Orana,ampol foodary tamworth orana,"21 White St Cnr Marius St, Tamworth NSW 2350",TAMWORTH,2350,-31.092552,150.9342661
NSW,1-32D56EQ,Budget Petrol Chippendale,budget petrol chippendale,"66-70 Regent Street, CHIPPENDALE NSW 2008",CHIPPENDALE,2008,-33.8878,151.2017441
NSW,1-32DXNGS,Ampol Foodary Port Macquarie,ampol foodary port macquarie,"100 Hastings River Dr, PORT MACQUARIE NSW 2444",PORT MACQUARIE,2444,-31.4290224,152.8820097
NSW,1-32F3W9I,Lowes Petroleum Service,lowes petroleum service,"1 Mclennan Street, ARMIDALE NSW 2350",ARMIDALE,2350,-30.511283,151.648329
NSW,1-32F3WPC,7-Eleven Karabar,7-eleven karabar,"2 Southqueen Pl, KARABAR NSW 2620",KARABAR,2620,-35.371414,149.232741
NSW,1-32NJADW,BP Riverwood,bp riverwood,"189-191 Belmore Rd, RIVERWOOD NSW 2210",RIVERWOOD,2210,-33.9556874,151.0511924
NSW,1-32RP6Q8,Baldwin Automotive,baldwin automotive,"631 McGowen St, BROKEN HILL NSW 2880",BROKEN HILL,2880,-31.9392219,141.4728025
NSW,1-32RP781,Astron Lidsdale,astron lidsdale,"1 Castlereagh Highway, LIDSDALE NSW 2790",LIDSDALE,2790,-33.396585,150.083725
NSW,1-32Z0LT2,Mobil Coolamon,mobil coolamon,"84 Cowabbie St, COOLAMON NSW 2701",COOLAMON,2701,-34.81678,147.200138
NSW,1-32Z0MFM,Mobil Narrandera,mobil narrandera,"74 Whitton St, NARRANDERA NSW 2700",NARRANDERA,2700,-34.7413487,146.5557829
NSW,1-332BEKY,JONES PANELBEATING,jones panelbeating,"72 Bolaro St, DUNEDOO NSW 2844",DUNEDOO,2844,-32.016523,149.3950546
NSW,1-333233P,7-Eleven Camperdown,7-eleven camperdown,"198 Parramatta Rd, CAMPERDOWN NSW 2050",CAMPERDOWN,2050,-33.886973,151.174134
NSW,1-3332HBP,7-Eleven McGraths Hill,7-eleven mcgraths hill,"142 Windsor Rd, MCGRATHS HILL NSW 2756",MCGRATHS HILL,2756,-33.6168487,150.8341844
NSW,1-3332HSF,7-Eleven Paddington,7-eleven paddington,"Cnr Oxford St & Greens Rd, PADDINGTON NSW 2021",PADDINGTON,2021,-33.883242,151.220641
NSW,1-3333AS2,7-Eleven Woolooware,7-eleven woolooware,"192-198 The Kingsway, WOOLOOWARE NSW 2230",WOOLOOWARE,2230,-34.046318,151.133545
NSW,1-3333BA6,7-Eleven Dapto,7-eleven dapto,"125-127 Princes Hwy, DAPTO NSW 2530",DAPTO,2530,-34.4987718,150.7914054
NSW,1-333LXZB,7-Eleven Sans Souci,7-eleven sans souci,"474-478 Rocky Point Rd, SANS SOUCI NSW 2219",SANS SOUCI,2219,-33.9908775,151.1333852
NSW,1-333LYGA,7-Eleven Prairewood,7-eleven prairewood,"485-487 Smithfield Road, PRAIRIEWOOD NSW 2176",PRAIRIEWOOD,2176,-33.871082,150.902893
NSW,1-333M8GW,7-Eleven Lithgow,7-eleven lithgow,"1131 Great Western Hwy, LITHGOW NSW 2790",LITHGOW,1131,-33.479907,150.13677
NSW,1-33486U8,7-Eleven Unanderra,7-eleven unanderra,"41-43 Princes Hwy, UNANDERRA NSW 2526",UNANDERRA,2526,-34.4502906,150.8492676
NSW,1-33487A8,7-Eleven Kelso,7-eleven kelso,"64 Sydney Rd, KELSO NSW 2795",KELSO,2795,-33.4184184,149.6062343
NSW,1-334Q11Y,7-Eleven Lurnea,7-eleven lurnea,"124 Hoxton Park Rd, LURNEA NSW 2170",LURNEA,2170,-33.9271659,150.9026939
NSW,1-334TLMK,7-Eleven St Helens Park,7-eleven st helens park,"Corner Appin Road & Kellerman Drive St Helens Park, St Helens Park NSW 2560",ST HELENS PARK,2560,-34.102063,150.802239
NSW,1-335BO4W,7-Eleven Edmondson Park,7-eleven edmondson park,"1962 Camden Valley Way, EDMONDSON PARK NSW 2174",EDMONDSON PARK,1962,-33.955169,150.8571099
NSW,1-335BR80,7-Eleven Greenacre,7-eleven greenacre,"301 Hume Hwy, GREENACRE NSW 2190",GREENACRE,2190,-33.9052467,151.0418668
NSW,1-335BRP0,7-Eleven Newport,7-eleven newport,"307-311 Barrenjoey Rd, NEWPORT NSW 2106",NEWPORT,2106,-33.6563398,151.3182504
NSW,1-335BVYU,7-Eleven Charlestown,7-eleven charlestown,"271-273 Charlestown Rd, CHARLESTOWN NSW 2290",CHARLESTOWN,2290,-32.9580218,151.689795
NSW,1-335CIKG,7-Eleven Edgeworth,7-eleven edgeworth,"745 Main Rd, EDGEWORTH NSW 2285",EDGEWORTH,2285,-32.9235802,151.6212248
NSW,1-335DO32,7-Eleven Baulkham Hills,7-eleven baulkham hills,"217-219 Seven Hills Rd, BAULKHAM HILLS NSW 2153",BAULKHAM HILLS,2153,-33.7555124,150.963514
NSW,1-335DQIR,7-Eleven Moorebank,7-eleven moorebank,"98-102 Heathcote Rd, MOOREBANK NSW 2170",MOOREBANK,2170,-33.9380819,150.9395525
NSW,1-335GJ24,7-Eleven Seven Hills,7-eleven seven hills,"151 Prospect Hwy, SEVEN HILLS NSW 2147",SEVEN HILLS,2147,-33.7689361,150.9426804
NSW,1-335INXN,7-Eleven Glendale,7-eleven glendale,"397 Main Rd, CARDIFF NSW 2285",CARDIFF,2285,-32.9339267,151.6562059
NSW,1-335N24H,7-Eleven Yagoona,7-eleven yagoona,"519 Hume Hwy, YAGOONA NSW 2199",YAGOONA,2199,-33.9076093,151.0207726
NSW,1-335NGJ0,7-Eleven Tweed Heads Sth,7-eleven tweed heads sth,"112 Minjungbal Dr, TWEED HEADS SOUTH NSW 2486",TWEED HEADS SOUTH,2486,-28.2072162,153.5454298
NSW,1-335NS6E,7-Eleven Matraville,7-eleven matraville,"515 Bunnerong Rd, MATRAVILLE NSW 2036",MATRAVILLE,2036,-33.9594352,151.231759
NSW,1-335NSMQ,7-Eleven Five Dock,7-eleven five dock,"231-235 Great North Road, Five Dock NSW 2046",FIVE DOCK,2046,-33.86491,151.130081
NSW,1-335O7B4,U-Go Baulkham Hills (Unmanned),u-go baulkham hills (unmanned),"117 Seven Hills Rd, BAULKHAM HILLS NSW 2153",BAULKHAM HILLS,2153,-33.7613952,150.9750732
NSW,1-338NNO8,7-Eleven Windsor,7-eleven windsor,"12 Hawkesbury Valley Way, WINDSOR NSW 2756",WINDSOR,2756,-33.6118712,150.8122023
NSW,1-338NO8W,7-Eleven RIVERSTONE,7-eleven riverstone,"55 Garfield Rd E, RIVERSTONE NSW 2765",RIVERSTONE,2765,-33.67797,150.86344
NSW,1-33FPG7I,Ampol Foodary Wetherill Park,ampol foodary wetherill park,"Cnr The Horsley Dr & Mcilwraith St, WETHERILL PARK NSW 2164",WETHERILL PARK,2164,-33.852401,150.890413
NSW,1-33I4E10,Freedom Fuels Terranora,freedom fuels terranora,"2-14 Henry Lawson Dr, TERRANORA NSW 2486",TERRANORA,2486,-28.2398716,153.5016872
NSW,1-33NV0WA,Metro Petroleum,metro petroleum,"37 Shellharbour Rd, LAKE ILLAWARRA NSW 2528",LAKE ILLAWARRA,2528,-34.5451466,150.8629141
NSW,1-33RXML8,Budget Petroleum Smithfield,budget petroleum smithfield,"729 The Horsley Dr, SMITHFIELD NSW 2164",SMITHFIELD,2164,-33.8522655,150.9357342
NSW,1-33V29V8,Ampol Foodary Unanderra,ampol foodary unanderra,"86-98 Princes Hwy, UNANDERRA NSW 2526",UNANDERRA,2526,-34.4541917,150.8451819
NSW,1-33VTGAS,Ampol Foodary Rydalmere,ampol foodary rydalmere,"309 Victoria Rd, RYDALMERE NSW 2116",RYDALMERE,2116,-33.8119597,151.0371167
NSW,1-33YNRTI,Ampol Foodary Albion Park Rail,ampol foodary albion park rail,"31 Princess Highway, ALBION PARK RAIL NSW 2527",ALBION PARK RAIL,2527,-34.551625,150.788036
NSW,1-3419APA,Mobil,mobil,"62-64 Wamoon Ave, LEETON NSW 2705",LEETON,2705,-34.5510174,146.391217
NSW,1-342BL6X,Metro Willoughby,metro willoughby,"599 Willoughby Rd, WILLOUGHBY NSW 2068",WILLOUGHBY,2068,-33.803882,151.1997448
NSW,1-345P5GY,Medco Kanahooka,medco kanahooka,"90-94 Lakeside Dr, KANAHOOKA NSW 2530",KANAHOOKA,2530,-34.501175,150.8145749
NSW,1-345SEHS,Ampol Foodary Guildford,ampol foodary guildford,"636-644 Woodville Rd, OLD GUILDFORD NSW 2161",OLD GUILDFORD,2161,-33.8665036,150.9881451
NSW,1-347AWSY,Mobil Coonamble,mobil coonamble,"66 Aberford St, COONAMBLE NSW 2829",COONAMBLE,2829,-30.9532115,148.3826157
NSW,1-348D542,Metro Fuel,metro fuel,"36-38 Lane Cove Rd, RYDE NSW 2112",RYDE,2112,-33.8075114,151.1086039
NSW,1-348D5IE,Ampol Foodary Toronto,ampol foodary toronto,"147 St, TORONTO NSW 2283",TORONTO,2283,-33.012861,151.592891
NSW,1-34AM3Y6,NRMA Fast Charger,nrma fast charger,"9 Murray Rose, SYDNEY OLYMPIC PARK NSW 2127",SYDNEY OLYMPIC PARK,2127,-33.8458976,151.0697681
NSW,1-34BHSV8,Ampol Foodary Narrabri,ampol foodary narrabri,"31 Dangar St, NARRABRI NSW 2390",NARRABRI,2390,-30.3298278,149.7756019
NSW,1-34GBUOE,Ampol Foodary Erina,ampol foodary erina,"155 The Entrance Rd, ERINA NSW 2250",ERINA,2250,-33.4382424,151.3793547
NSW,1-34GBV70,CULCAIRN TAKEAWAY & FUEL,culcairn takeaway & fuel,"2883 Olympic Hwy, CULCAIRN NSW 2660",CULCAIRN,2883,-35.6745404,147.0356198
NSW,1-34GWAKC,Ampol Foodary Leumeah,ampol foodary leumeah,"6 Rudd Rd, LEUMEAH NSW 2560",LEUMEAH,2560,-34.0539873,150.829946
NSW,1-34GYF8J,Ampol Foodary Moama,ampol foodary moama,"73 Meninya St, MOAMA NSW 2731",MOAMA,2731,-36.1081561,144.7528658
NSW,1-34LSRJU,Ampol Foodary Coonabarabran,ampol foodary coonabarabran,"85-87 John St, COONABARABRAN NSW 2357",COONABARABRAN,2357,-31.2723111,149.2771566
NSW,1-34P94YS,Ampol Foodary Heathcote Southbound,ampol foodary heathcote southbound,"1344 Princes Hwy, HEATHCOTE NSW 2233",HEATHCOTE,1344,-34.0884062,151.0072293
NSW,1-34TGVWV,United Petroleum Junee,united petroleum junee,"126-130 Broadway St, JUNEE NSW 2663",JUNEE,2663,-34.8681114,147.5834859
NSW,1-34W4CKW,Roger Moore Pty Ltd,roger moore pty ltd,"55 Hope St, WARIALDA NSW 2402",WARIALDA,2402,-29.5416033,150.5768741
NSW,1-34Y13SO,Hill & Co Metro Depot,hill & co metro depot,"1 Braidwood Rd, GOULBURN NSW 2580",GOULBURN,2580,-34.7622896,149.7162897
NSW,1-3518TYM,Delta Ag,delta ag,"5 Harry Davies Dr, LOCKHART NSW 2656",LOCKHART,2656,-35.2280157,146.7266377
NSW,1-35259RI,Budget Petrol Sanctuary Point,budget petrol sanctuary point,"147 Larmer Ave, SANCTUARY POINT NSW 2540",SANCTUARY POINT,2540,-35.0993372,150.6329216
NSW,1-354FQ0Y,Ampol Foodary Homebush,ampol foodary homebush,"334-336 Parramatta Rd, HOMEBUSH WEST NSW 2140",HOMEBUSH WEST,2140,-33.8581667,151.0681389
NSW,1-354H0Y4,Ampol Foodary Maryland,ampol foodary maryland,"41 Minmi Rd, WALLSEND NSW 2287",WALLSEND,2287,-32.889608,151.661916
NSW,1-356BQSI,Speedway Kent Road,speedway kent road,"38 Kent Rd, NORTH RYDE NSW 2113",NORTH RYDE,2113,-33.7916867,151.1159807
NSW,1-3583ZC8,Ampol Foodary Kingsford,ampol foodary kingsford,"603-611 Anzac Pde, KINGSFORD NSW 2032",KINGSFORD,2032,-33.934352,151.237114
NSW,1-3583ZVL,Pearl Energy Williamtown,pearl energy williamtown,"1 Lavis Lane, WILLIAMTOWN NSW 2318",WILLIAMTOWN,2318,-32.8169385,151.8438871
NSW,1-358YPRT,Liberty Tenterfield,liberty tenterfield,"104 Rouse St, TENTERFIELD NSW 2372",TENTERFIELD,2372,-29.0615215,152.0173699
NSW,1-35BZA6C,Ampol Foodary Charmhaven,ampol foodary charmhaven,"13-15 Pacific Hwy Cnr Costa Ave, CHARMHAVEN NSW 2263",CHARMHAVEN,2263,-33.216355,151.509196
NSW,1-35DXEJA,EG Ampol Silverwater,eg ampol silverwater,"154 Silverwater Rd, SILVERWATER NSW 2128",SILVERWATER,2128,-33.8316714,151.0485448
NSW,1-35E0W5I,EG Ampol Chipping Norton,eg ampol chipping norton,"147 Newbridge Rd, CHIPPING NORTON NSW 2170",CHIPPING NORTON,2170,-33.9281332,150.9640102
NSW,1-35I5YUW,Ampol Foodary Hazelbrook,ampol foodary hazelbrook,"198-199 Great Western Hwy, HAZELBROOK NSW 2779",HAZELBROOK,2779,-33.7210678,150.452084
NSW,1-35MKSLS,Ampol South Grafton,ampol south grafton,"60-64 Schwinghammer St, SOUTH GRAFTON NSW 2460",SOUTH GRAFTON,2460,-29.7119008,152.9464277
NSW,1-35MMKJG,Xpress fuels,xpress fuels,"134 Brighton Ave, CAMPSIE NSW 2194",CAMPSIE,2194,-33.9033733,151.1068754
NSW,1-35OD2JQ,Ampol Foodary West Wyalong,ampol foodary west wyalong,"Mid West Highway, West Wyalong NSW 2671",WEST WYALONG,2671,-33.926481,147.244991
NSW,1-35PP1BW,Metro Doyalson,metro doyalson,"50 Pacific Hwy, DOYALSON NSW 2262",DOYALSON,2262,-33.1996747,151.5232505
NSW,1-35UCIVI,Ampol Foodary Woollahra,ampol foodary woollahra,"116-118 Old South Head Rd, WOOLLAHRA NSW 2025",WOOLLAHRA,2025,-33.8896117,151.2553819
NSW,1-3625I7G,U-Go Mount Colah,u-go mount colah,"603 Pacific Hwy, MOUNT COLAH NSW 2079",MOUNT COLAH,2079,-33.6703805,151.1151924
NSW,1-364R9LT,EG Ampol Salamander Bay,eg ampol salamander bay,"19 Bagnall Beach Road, SALAMANDER BAY NSW 2317",SALAMANDER BAY,2317,-32.734283,152.109418
NSW,1-364RA44,Ampol Foodary Forster,ampol foodary forster,"16-18 Lake St, FORSTER NSW 2428",FORSTER,2428,-32.1830691,152.5162479
NSW,1-36CR658,Ampol Foodary Barrack Heights,ampol foodary barrack heights,"332-336 Shellharbour Rd, BARRACK HEIGHTS NSW 2528",BARRACK HEIGHTS,2528,-34.5648919,150.8597784
NSW,1-36DFEB1,Ampol South Albury,ampol south albury,"609 Hovell St, SOUTH ALBURY NSW 2640",SOUTH ALBURY,2640,-36.0870453,146.9100188
NSW,1-36J6LB8,Ampol Foodary St Ives North,ampol foodary st ives north,"363 Mona Vale Road, ST IVES NORTH NSW 2075",ST IVES NORTH,2075,-33.716381,151.173316
NSW,1-36JP7Y4,Oilplus Daroobalgie (Bulk Service Depot),oilplus daroobalgie (bulk service depot),"Lot 127 Lot 127 Back Yamma Rd, Daroobalgie NSW 2870",DAROOBALGIE,2870,-33.32314,148.07285
NSW,1-36NUOYC,Woodham Petroleum Collarenebri,woodham petroleum collarenebri,"36-40 Wilson St, COLLARENEBRI NSW 2833",COLLARENEBRI,2833,-29.5439722,148.5763508
NSW,1-36NV6LW,Woodham Petroleum Hermidale,woodham petroleum hermidale,"Lot 1 Quanda St, HERMIDALE NSW 2831",HERMIDALE,2831,-31.532819,146.730229
NSW,1-36NVIB9,Woodham Petroleum Byrock,woodham petroleum byrock,"Mulga Creek Hotel Mitchell Hwy, BYROCK NSW 2831",BYROCK,2831,-30.494869,146.320327
NSW,1-36NVIQO,Woodham Petroleum Coonamble,woodham petroleum coonamble,"5 Hooper Dr, COONAMBLE NSW 2829",COONAMBLE,2829,-30.9438091,148.3749204
NSW,1-36OXB1H,7-Eleven Enmore,7-eleven enmore,"22 Stanmore Street, Enmore NSW 2042",ENMORE,2042,-33.898417,151.169933
NSW,1-36PPGA5,Werrington South,werrington south,"577 Great Western Hwy, WERRINGTON NSW 2747",WERRINGTON,2747,-33.7673928,150.7568645
NSW,1-36PRBJ6,7-Eleven East Maitland,7-eleven east maitland,"35 Melbourne St, EAST MAITLAND NSW 2323",EAST MAITLAND,2323,-32.7448089,151.5838575
NSW,1-36PRC02,7-Eleven Long Jetty,7-eleven long jetty,"475 The Entrance Rd, LONG JETTY NSW 2261",LONG JETTY,2261,-33.3632592,151.4789107
NSW,1-36PX5JS,Speedway Casula,speedway casula,"572-576 Hume Hwy, CASULA NSW 2170",CASULA,2170,-33.9508807,150.9045131
NSW,1-36QO6XE,Jeff and rocks fuel and hardware,jeff and rocks fuel and hardware,"38 Adam's Street, Wentworth NSW 2648",WENTWORTH,2648,-34.107783,141.917818
NSW,1-36QS9JQ,U-Go Raymond Terrace (Unmanned),u-go raymond terrace (unmanned),"136-138 Adelaide St, RAYMOND TERRACE NSW 2324",RAYMOND TERRACE,2324,-32.7650378,151.7425266
NSW,1-36QTZ8W,Ampol Foodary Raymond Terrace North,ampol foodary raymond terrace north,"40 Richardson Rd, RAYMOND TERRACE NSW 2324",RAYMOND TERRACE,2324,-32.7559909,151.7628529
NSW,1-36RSJTU,Metro Petroleum Morisset,metro petroleum morisset,"57 Dora St, MORISSET NSW 2264",MORISSET,2264,-33.1073352,151.4900618
NSW,1-36UFUWG,7-Eleven Morisset,7-eleven morisset,"133 Dora St, MORISSET NSW 2264",MORISSET,2264,-33.1117963,151.4808387
NSW,1-36W6NAB,Ampol Foodary Seven Hills,ampol foodary seven hills,"38 Abbott Rd, SEVEN HILLS NSW 2147",SEVEN HILLS,2147,-33.7669285,150.9548252
NSW,1-36WJD1S,BP Kiama,bp kiama,"180 Manning St, KIAMA NSW 2533",KIAMA,2533,-34.6824441,150.8483121
NSW,1-371E1X8,Ampol Foodary Woy Woy,ampol foodary woy woy,"66 Memorial Ave, BLACKWALL NSW 2256",BLACKWALL,2256,-33.5069925,151.331671
NSW,1-371FB50,Ampol Foodary Kariong,ampol foodary kariong,"Lot 2 Langford Drive Cnr Mitchell Dr, KARIONG NSW 2250",KARIONG,2250,-33.439373,151.293527
NSW,1-3723SEI,Randwick Petroleum,randwick petroleum,"88 Clovelly Rd, RANDWICK NSW 2031",RANDWICK,2031,-33.9091412,151.2486257
NSW,1-37AELFF,Broulee Supermarket & Cellars,broulee supermarket & cellars,"23-25 Grant St, BROULEE NSW 2537",BROULEE,2537,-35.8539562,150.1758532
NSW,1-37C1PJD,BP Fairfield,bp fairfield,"183 The Horsley Drive, FAIRFIELD EAST NSW 2165",FAIRFIELD EAST,2165,-33.87784,150.966162
NSW,1-37C3B5G,BP Leppington,bp leppington,"1389 Camden Valley Way, LEPPINGTON NSW 2179",LEPPINGTON,1389,-33.9703881,150.8124919
NSW,1-37C5Y2V,Ampol Village Grocer,ampol village grocer,"1413-1415 Elizabeth Dr, KEMPS CREEK NSW 2178",KEMPS CREEK,1413,-33.8789556,150.7951152
NSW,1-37C6CTS,Ampol Foodary Manly Vale,ampol foodary manly vale,"236 Condamine Street, MANLY VALE NSW 2093",MANLY VALE,2093,-33.784842,151.267268
NSW,1-37CYITO,Bp East Albury,bp east albury,"687 Drome St, EAST ALBURY NSW 2640",EAST ALBURY,2640,-36.0747972,146.947267
NSW,1-37EXEYM,BP Hoxton Park Airfield,bp hoxton park airfield,"505 Cowpasture Rd, LEN WATERS ESTATE NSW 2171",LEN WATERS ESTATE,2171,-33.918371,150.854054
NSW,1-37FHHF8,Ultra Mogo,ultra mogo,"33-35 Princes Highway, MOGO NSW 2536",MOGO,2536,-35.782159,150.142056
NSW,1-37FPSCM,IOR Nevertire (Self- Serve),ior nevertire (self- serve),"Gunningbar St &, Cremorne St, Nevertire NSW 2826",NEVERTIRE,2826,-31.8377876794001,147.722093030482
NSW,1-37GQMZI,Ampol Foodary Kyogle,ampol foodary kyogle,"24-26 Summerland Way, KYOGLE NSW 2474",KYOGLE,2474,-28.6181058,153.0038475
NSW,1-37HMA24,MOBIL LAKE ALBERT,mobil lake albert,"53 Gregory Cres, LAKE ALBERT NSW 2650",LAKE ALBERT,2650,-35.1667337,147.3821687
NSW,1-37NGGLG,Ampol Foodary Cobar,ampol foodary cobar,"99 Barrier Hwy, COBAR NSW 2835",COBAR,2835,-31.496461,145.827497
NSW,1-37OBIG3,Shell Southwest Rocks,shell southwest rocks,"158-162 Gregory St, SOUTH WEST ROCKS NSW 2431",SOUTH WEST ROCKS,2431,-30.8997236,153.0412954
NSW,1-37OFYQO,Ampol Foodary Croydon,ampol foodary croydon,"404-410 Liverpool Rd, CROYDON NSW 2132",CROYDON,2132,-33.8884725,151.1157289
NSW,1-37TZ3D2,Ampol Foodary Edgeworth,ampol foodary edgeworth,"662 Main Rd, EDGEWORTH NSW 2285",EDGEWORTH,2285,-32.925586,151.627821
NSW,1-37XT91K,BP Thurgoona,bp thurgoona,"6 Diamond Drive, THURGOONA NSW 2640",THURGOONA,2640,-36.044179,146.9948
NSW,1-37Y3QJK,Pacific Petroleum,pacific petroleum,"5 Canavan Dr, BERESFIELD NSW 2322",BERESFIELD,2322,-32.8006392,151.6329248
NSW,1-37ZTV5J,Ampol Foodary Five Dock,ampol foodary five dock,"Ramsay Rd & Fairlight Street, FIVE DOCK NSW 2046",FIVE DOCK,2046,-33.870023,151.130434
NSW,1-3834VGM,South West Fuel Cootamundra,south west fuel cootamundra,"56 Yass Rd, COOTAMUNDRA NSW 2590",COOTAMUNDRA,2590,-34.6300444,148.0413526
NSW,1-3842R3K,Ampol Foodary Lismore Airport,ampol foodary lismore airport,"237 Union St, SOUTH LISMORE NSW 2480",SOUTH LISMORE,2480,-28.8205218,153.2648001
NSW,1-388SIK0,BP Coleambally,bp coleambally,"12 Kingfisher Ave, COLEAMBALLY NSW 2707",COLEAMBALLY,2707,-34.806483,145.8831002
NSW,1-38BJOZF,Budget Carlton,budget carlton,"3 Railway Pde, KOGARAH NSW 2217",KOGARAH,2217,-33.9617137,151.1331812
NSW,1-38CXBJQ,Shell Reddy Express Bomaderry,shell reddy express bomaderry,"271 Princes Hwy, BOMADERRY NSW 2541",BOMADERRY,2541,-34.8400311,150.5939574
NSW,1-38FYEPS,BP CLOVELLY,bp clovelly,"33-37 Carrington Rd, RANDWICK NSW 2031",RANDWICK,2031,-33.9065066,151.2525812
NSW,1-38GTR8G,Ampol Foodary Marsden Park,ampol foodary marsden park,"875 Richmond Rd, MARSDEN PARK NSW 2765",MARSDEN PARK,2765,-33.7161229,150.8457132
NSW,1-38GZTYP,Coles Express Murwillumbah,coles express murwillumbah,"279-283 Tweed Valley Way, SOUTH MURWILLUMBAH NSW 2484",SOUTH MURWILLUMBAH,2484,-28.3294089,153.402319
NSW,1-38I2AU6,Bp woonona,bp woonona,"426 Princes Highway, WOONONA NSW 2517",WOONONA,2517,-34.341625,150.905612
NSW,1-38JAD7Y,Ampol Foodary Dee Why,ampol foodary dee why,"793-797 Pittwater Rd, DEE WHY NSW 2099",DEE WHY,2099,-33.7456838,151.2920603
NSW,1-38JB3DU,MOBIL MOSS VALE,mobil moss vale,"225 Argyle St, MOSS VALE NSW 2577",MOSS VALE,2577,-34.5460848,150.3745822
NSW,1-38JR15E,Ampol Foodary Dubbo,ampol foodary dubbo,"Cobra Street Cnr Brisbane Street, DUBBO NSW 2830",DUBBO,2830,-32.253098,148.603148
NSW,1-38P2B1C,BP Blackheath,bp blackheath,"257-263 Great Western Hwy, BLACKHEATH NSW 2785",BLACKHEATH,2785,-33.6337911,150.2851752
NSW,1-38PABC7,Ampol Foodary Lismore,ampol foodary lismore,"136 Woodlark St, LISMORE NSW 2480",LISMORE,2480,-28.8080812,153.2807559
NSW,1-38TRBQH,Metro Petroleum Blacktown,metro petroleum blacktown,"65-69 Richmond Rd, BLACKTOWN NSW 2148",BLACKTOWN,2148,-33.7638661,150.9024452
NSW,1-38W2OI7,Metro Peakhurst East,metro peakhurst east,"637 Forest Rd, PEAKHURST NSW 2210",PEAKHURST,2210,-33.958374,151.068773
NSW,1-38WI243,United Petroleum Wyoming,united petroleum wyoming,"459 Pacific Hwy, WYOMING NSW 2250",WYOMING,2250,-33.4103967,151.3477896
NSW,1-391GZSA,Enhance,enhance,"44 Railway St, BOMADERRY NSW 2541",BOMADERRY,2541,-34.8519365,150.6117038
NSW,1-39M9WAW,Budget Petrol Lewisham,budget petrol lewisham,"204-208 New Canterbury Rd, LEWISHAM NSW 2049",LEWISHAM,2049,-33.8970975,151.1490284
NSW,1-39MA9WW,Ultra Edgeworth,ultra edgeworth,"780 Main Rd, EDGEWORTH NSW 2285",EDGEWORTH,2285,-32.9241812,151.6147633
NSW,1-39NS51I,Metro Petroleum Narwee,metro petroleum narwee,"32 Bryant St, NARWEE NSW 2209",NARWEE,2209,-33.9485538,151.0715124
NSW,1-39NX57C,Reflections Holiday Parks,reflections holiday parks,"State Recreation Area, 2373 Burrinjuck Road, BOOKHAM NSW 2582",BOOKHAM,2373,-34.9751553,148.6248889
NSW,1-39OTP5M,CALTEX WEST ALBURY,caltex west albury,"2/ 997 Pemberton St, WEST ALBURY NSW 2640",WEST ALBURY,2640,-36.073577,146.891307
NSW,1-39TRDP6,NORCO RURAL KYOGLE,norco rural kyogle,"4 Willis St, KYOGLE NSW 2474",KYOGLE,2474,-28.62192,153.0003604
NSW,1-39U1QMQ,7-Eleven Emerald Hills,7-eleven emerald hills,"7 Raby Rd, LEPPINGTON NSW 2179",LEPPINGTON,2179,-33.9953296,150.7897456
NSW,1-39U1R4I,Reflections Holiday Parks,reflections holiday parks,"Copeton Waters State Park, 3533 Copeton Dam Road, COPETON NSW 2360",COPETON,3533,-29.9199706,150.9386787
NSW,1-39V2A98,Reflections Holiday Parks,reflections holiday parks,"Glenbawn Road, GLENBAWN NSW 2337",GLENBAWN,2337,-32.108281,150.990138
NSW,1-39V37P7,Reflections Holiday Parks,reflections holiday parks,"2453 GRABINE RD, BIGGA NSW 2583",BIGGA,2453,-34.0166703,149.0842083
NSW,1-39V4W9Q,Reflections Holiday Parks,reflections holiday parks,"Reflections Holiday Parks Fashions Mount Road, MUMBIL NSW 2820",MUMBIL,2820,-32.687864,149.110951
NSW,1-39V9M5S,Ultra St George's Basin,ultra st george's basin,"1 St Georges Road, ST GEORGES BASIN NSW 2540",ST GEORGES BASIN,2540,-35.0898483,150.5906667
NSW,1-39XE9YK,norco rural bowraville,norco rural bowraville,"51 Carbin Street, Bowraville NSW 2449",BOWRAVILLE,2449,-30.650938,152.857184
NSW,1-3A51990,Gresford Garage and Rural,gresford garage and rural,"26 Durham Rd, EAST GRESFORD NSW 2311",EAST GRESFORD,2311,-32.4276457,151.5508087
NSW,1-3A7L0I8,Carey bay servo,carey bay servo,"42 Ambrose Street, CAREY BAY NSW 2283",CAREY BAY,2283,-33.022855,151.6051
NSW,1-3A9XSQD,Ampol Foodary Lilli Pilli,ampol foodary lilli pilli,"481 Port Hacking Road, LILLI PILLI NSW 2229",LILLI PILLI,2229,-34.052346,151.121541
NSW,1-3AFDFMY,U-Go East Maitland (Un-manned),u-go east maitland (un-manned),"Newcastle St & William St, EAST MAITLAND NSW 2323",EAST MAITLAND,2323,-32.748697,151.582952
NSW,1-3AGF2VA,Ampol Foodary Rutherford West,ampol foodary rutherford west,"387 New England Hwy, RUTHERFORD NSW 2320",RUTHERFORD,2320,-32.707904,151.507374
NSW,1-3AN8J2W,Ampol Foodary Wingham,ampol foodary wingham,"Cnr Isabella Street and Primrose Street, WINGHAM NSW 2429",WINGHAM,2429,-31.868026,152.371492
NSW,1-3AQOX1U,Caroona Store,caroona store,"Post Office Residence 8 Boundary St, CAROONA NSW 2343",CAROONA,2343,-31.4065199,150.4254653
NSW,1-3ARRCYO,BP FOX HILLS,bp fox hills,"152 Toongabbie Rd, GIRRAWEEN NSW 2145",GIRRAWEEN,2145,-33.7956395,150.9390745
NSW,1-3AZ93MK,Coles Express Lansvale West,coles express lansvale west,"240 Hume Highway, LANSVALE NSW 2166",LANSVALE,2166,-33.89796,150.952614
NSW,1-3B093Z6,Ampol Foodary Moorebank,ampol foodary moorebank,"216 Newbridge Rd, MOOREBANK NSW 2170",MOOREBANK,2170,-33.9293153,150.9550957
NSW,1-3B1C95G,Metro Kurmond and Newsagency,metro kurmond and newsagency,"583 Bells Line Of Road, Kurmond NSW 2757",KURMOND,2757,-33.55094,150.682834
NSW,1-3B1L2AE,Tasco Berrigan Chanter street,tasco berrigan chanter street,"155-165 Chanter St, BERRIGAN NSW 2712",BERRIGAN,2712,-35.6557616,145.8015557
NSW,1-3B3I2QK,ACCESS FUELS TUNCURRY,access fuels tuncurry,"86 Manning St, TUNCURRY NSW 2428",TUNCURRY,2428,-32.1743965,152.4985721
NSW,1-3B4LIB4,Kulnura General Store,kulnura general store,"Kulnura LPO 4 Greta Rd, KULNURA NSW 2250",KULNURA,2250,-33.2249339,151.2226611
NSW,1-3BAXVI5,Metro Wakeley,metro wakeley,"72 Thorney Rd, FAIRFIELD WEST NSW 2165",FAIRFIELD WEST,2165,-33.8736677,150.9241934
NSW,1-3BC3LZ2,Ampol Foodary Warners Bay,ampol foodary warners bay,"55 King St, WARNERS BAY NSW 2282",WARNERS BAY,2282,-32.9742387,151.647608
NSW,1-3BC49ZS,BP Salt Ash,bp salt ash,"Corner Richardson Road and Nelson Bay, SALT ASH NSW 2318",SALT ASH,2318,-32.788325,151.902234
NSW,1-3BD9UZ6,Ampol Foodary Coffs Harbour,ampol foodary coffs harbour,"399 Pacific Highway, Coffs Harbour NSW 2450",COFFS HARBOUR,2450,-30.320653,153.08738
NSW,1-3BEM8K8,Ampol Foodary Morisset,ampol foodary morisset,"5-11 Bvd, MORISSET NSW 2264",MORISSET,2264,-33.116708,151.471173
NSW,1-3BILI2O,Ampol Foodary Narrabeen,ampol foodary narrabeen,"1509-1511 Pittwater Road, NORTH NARRABEEN NSW 2101",NORTH NARRABEEN,1509,-33.7046233,151.2969223
NSW,1-3BKDRZI,Enhance 24 Hour (Self-Service),enhance 24 hour (self-service),"1 Old Port Road, PORT KEMBLA NSW 2505",PORT KEMBLA,2505,-34.478216,150.902731
NSW,1-3BNFOTC,Ampol Berrigan,ampol berrigan,"160-162 Jerilderie Street, BERRIGAN NSW 2712",BERRIGAN,2712,-35.6643908,145.8164423
NSW,1-3BSQ3TF,BUDGET PETROL ASHFIELD,budget petrol ashfield,"22 Charlotte Street, ASHFIELD NSW 2131",ASHFIELD,2131,-33.8864781,151.1253217
NSW,1-3BTHXLI,Newmans Service Centre,newmans service centre,"136-140 Adelaide Street, BLAYNEY NSW 2799",BLAYNEY,2799,-33.5280818,149.2565522
NSW,1-3C0LURY,Speedway Liverpool,speedway liverpool,"406 Macquarie Street, LIVERPOOL NSW 2170",LIVERPOOL,2170,-33.9281528,150.9190771
NSW,1-3C3L2TW,Ultra Manly,ultra manly,"209 Pittwater Road, Manly NSW 2095",MANLY,2095,-33.787346,151.284083
NSW,1-3C5J5V0,U-Go Canley Heights (Un-manned),u-go canley heights (un-manned),"280-282 Canley Vale Road, CANLEY HEIGHTS NSW 2166",CANLEY HEIGHTS,2166,-33.883924,150.924202
NSW,1-3C98X5S,BOBBIN HEAD PETROL STATION,bobbin head petrol station,"313 Bobbin Head Road, NORTH TURRAMURRA NSW 2074",NORTH TURRAMURRA,2074,-33.7088474,151.1482707
NSW,1-3CJPB05,Ampol Foodary Albury North,ampol foodary albury north,"79 Union Road, NORTH ALBURY NSW 2640",NORTH ALBURY,2640,-36.054966,146.9487601
NSW,1-3CROYT1,Speedway Bankstown,speedway bankstown,"49 Canterbury Road, BANKSTOWN NSW 2200",BANKSTOWN,2200,-33.9329238,151.0397365
NSW,1-3CT84OW,Woodham Petroleum Barringun (Diesel stop),woodham petroleum barringun (diesel stop),"BORDER GATE FARM 13698 MITCHELL HWY, BARRINGUN NSW 2810",BARRINGUN,2810,-29.01015409,145.71284842
NSW,1-3CTBVKV,shell cromer,shell cromer,"189 South Creek Road, CROMER NSW 2099",CROMER,2099,-33.7361527,151.2803635
NSW,1-3D0IDG4,BP RANDWICK,bp randwick,"8-10 Perouse Road, RANDWICK NSW 2031",RANDWICK,2031,-33.91899,151.2421524
NSW,1-3D1V933,U-Go Bonnyrigg (Un-manned),u-go bonnyrigg (un-manned),"Smithfield Rd, Cnr Elizabeth Drive, BONNYRIGG NSW 2177",BONNYRIGG,2177,-33.888347,150.88214
NSW,1-3D4089K,Metro Islington,metro islington,"144 Maitland Road, ISLINGTON NSW 2296",ISLINGTON,2296,-32.9151886,151.7480046
NSW,1-3D9T3ZK,NightOwl Shell Berkeley Vale,nightowl shell berkeley vale,"1a Tumbi Creek Road, BERKELEY VALE NSW 2261",BERKELEY VALE,2261,-33.361412,151.4440283
NSW,1-3D9ZK1E,Tinonee General Store,tinonee general store,"53 Beecher Street, TINONEE NSW 2430",TINONEE,2430,-31.9390053,152.4101653
NSW,1-3DD2O0W,Buronga IGA Express,buronga iga express,"141 Sturt Hwy, BURONGA NSW 2739",BURONGA,2739,-34.173813,142.192966
NSW,1-3DELGIK,Metro Sandgate,metro sandgate,"61 Maitland Road, SANDGATE NSW 2304",SANDGATE,2304,-32.8731538,151.7120357
NSW,1-3DEM3J3,DURI FUEL STATION,duri fuel station,"68 Duri Road, TAMWORTH NSW 2340",TAMWORTH,2340,-31.1083021,150.8997264
NSW,1-3DKIADK,BP Rockdale,bp rockdale,"444 West Botany Street, ROCKDALE NSW 2216",ROCKDALE,2216,-33.9599094,151.1457386
NSW,1-3DNLWYQ,Fuel Canowindra,fuel canowindra,"43 Ferguson Street, CANOWINDRA NSW 2804",CANOWINDRA,2804,-33.562072,148.665825
NSW,1-3DQM6EW,Ampol Foodary Brownsville,ampol foodary brownsville,"342 Kanahooka Road, BROWNSVILLE NSW 2530",BROWNSVILLE,2530,-34.4859351,150.8064561
NSW,1-3DW7NTA,BP St Marys (Forrester Road),bp st marys (forrester road),"120-128 Forrester Road, ST MARYS NSW 2760",ST MARYS,2760,-33.755235,150.7752883
NSW,1-3DYE91S,Lowes Petroleum Gunnedah OPT,lowes petroleum gunnedah opt,"1 Law Close, GUNNEDAH NSW 2380",GUNNEDAH,2380,-30.9646489,150.2327987
NSW,1-3E2O5ZO,Mobil Tamworth,mobil tamworth,"246 Goonoo Goonoo Road, SOUTH TAMWORTH NSW 2340",SOUTH TAMWORTH,2340,-31.1096184,150.9235708
NSW,1-3E5YZRO,Ampol Heatherbrae,ampol heatherbrae,"2283 Pacific Highway, 2283 Pacific Highway, HEATHERBRAE NSW 2324",HEATHERBRAE,2283,-32.7879315,151.7270982
NSW,1-3E64VCQ,BP CONCORD,bp concord,"20 Burwood Road, CONCORD NSW 2137",CONCORD,2137,-33.8675406,151.1053024
NSW,1-3EA5UDW,Shell Tyndale (24/7 unmanned fuel),shell tyndale (24/7 unmanned fuel),"4012 BIG RIVER WAY, TYNDALE NSW 2460",TYNDALE,4012,-29.5616228,153.1494197
NSW,1-3EFREU4,BP Balranald Roadhouse,bp balranald roadhouse,94 Sturt Hwy BALRANALD NSW 2715,STURT HWY BALRANALD,2715,-34.66705,143.56526
NSW,1-3EHTAZY,Metro Punchbowl,metro punchbowl,"998 Punchbowl Road, PUNCHBOWL NSW 2196",PUNCHBOWL,2196,-33.9322003,151.045319
NSW,1-3EHTEHJ,Ampol Foodary Yass,ampol foodary yass,"228 Comur Street, YASS NSW 2582",YASS,2582,-34.8442803,148.9139713
NSW,1-3EHXVLS,Metro Petroleum Fairy Meadow,metro petroleum fairy meadow,"16 Princes Highway, FAIRY MEADOW NSW 2519",FAIRY MEADOW,2519,-34.3875256,150.8946836
NSW,1-3EYF4N4,North Coast Petroleum Coffs Harbour,north coast petroleum coffs harbour,"15-17 O'Keefe Drive, COFFS HARBOUR NSW 2450",COFFS HARBOUR,2450,-30.317456,153.09889
NSW,1-3EZ22PH,METRO PETROLEUM PERTHVILLE,metro petroleum perthville,"11-13 Vale Rd, PERTHVILLE NSW 2795",PERTHVILLE,2795,-33.48647,149.547025
NSW,1-3EZ2TB8,METRO SOUTH BATHURST,metro south bathurst,"45 Bant Street, SOUTH BATHURST NSW 2795",SOUTH BATHURST,2795,-33.4310006,149.5782802
NSW,1-3F5Q57Q,Tasco Deniliquin Ochtertyre St,tasco deniliquin ochtertyre st,"488 Ochtertyre St, DENILIQUIN NSW 2710",DENILIQUIN,2710,-35.530529,144.944922
NSW,1-3F7J6OC,METRO HEDDON GRETA,metro heddon greta,"81-83 Main Road, HEDDON GRETA NSW 2321",HEDDON GRETA,2321,-32.8053284,151.5070839
NSW,1-3F7T60X,Ampol Foodary Banora Point West,ampol foodary banora point west,"Darlington Drive Corner Leisure Drive, BANORA POINT WEST NSW 2486",BANORA POINT WEST,2486,-28.21394,153.541772
NSW,1-3F9UAGF,Ampol Kelso,ampol kelso,"19 Sydney Road, KELSO NSW 2795",KELSO,2795,-33.4190908,149.6024032
NSW,1-3FAQV7U,Mobil Singleton,mobil singleton,"1 Bridgman Road, DUNOLLY NSW 2330",DUNOLLY,2330,-32.5559481,151.1668972
NSW,1-3FH7X74,BP ROADHOUSE WALLABADAH,bp roadhouse wallabadah,"3055 New England Highway, WALLABADAH NSW 2343",WALLABADAH,3055,-31.5506501,150.8268025
NSW,1-3FJR97M,Ampol Foodary Holbrook,ampol foodary holbrook,"51 Albury St, HOLBROOK NSW 2644",HOLBROOK,2644,-35.730609,147.308259
NSW,1-3FKXU9W,Gas to connect,gas to connect,"54c Fairfield Road, GUILDFORD WEST NSW 2161",GUILDFORD WEST,2161,-33.8472109,150.9623342
NSW,1-3FPEIA2,Ampol Foodary Broken Hill,ampol foodary broken hill,"73-87 Oxide Street, BROKEN HILL NSW 2880",BROKEN HILL,2880,-31.9553279,141.465852
NSW,1-3FTHO3Q,MOBIL 1 CROOKWELL,mobil 1 crookwell,"204 Goulburn Street, CROOKWELL NSW 2583",CROOKWELL,2583,-34.4607687,149.474074
NSW,1-3G0DJA2,Supreme Petroleum Guildford,supreme petroleum guildford,"210 Guildford Road, GUILDFORD NSW 2161",GUILDFORD,2161,-33.8551791,150.9909269
NSW,1-3G3N2TG,Barooga General Store,barooga general store,"37 Vermont Street, BAROOGA NSW 3644",BAROOGA,3644,-35.9123873,145.6904804
NSW,1-3G5CXW8,Coopernook Service Station,coopernook service station,"104 George Gibson Drive, COOPERNOOK NSW 2426",COOPERNOOK,2426,-31.8255143,152.6127061
NSW,1-3GC8F26,Ungarie Pines Motel ans Service Station,ungarie pines motel ans service station,"76 Wollongough Street, UNGARIE NSW 2669",UNGARIE,2669,-33.6386957,146.9713404
NSW,1-3GFIORY,BP Gumly Gumly,bp gumly gumly,"1 Tasman Road, GUMLY GUMLY NSW 2652",GUMLY GUMLY,2652,-35.1263413,147.4220045
NSW,1-3GG2AHU,Enhance Marulan,enhance marulan,"117-119 George Street, MARULAN NSW 2579",MARULAN,2579,-34.708272,150.0100751
NSW,1-3GHAULA,BP Manilla,bp manilla,"301-302 Tamworth Rd, Manilla NSW 2346",MANILLA,2346,-30.7570521125818,150.729766889045
NSW,1-3GMX5O2,Ampol Foodary Goulburn,ampol foodary goulburn,"68 Goldsmith Street, GOULBURN NSW 2580",GOULBURN,2580,-34.7505216,149.719228
NSW,1-3GP39FG,BP North Orange,bp north orange,"5 Hanrahan Place, ORANGE NSW 2800",ORANGE,2800,-33.2595953,149.1143421
NSW,1-3GPCNED,Ampol Foodary Toormina,ampol foodary toormina,"2 Minorca Place, TOORMINA NSW 2452",TOORMINA,2452,-30.3522902,153.0906524
NSW,1-3H05TFI,Metro Peakhurst,metro peakhurst,"114 Boundary Road, PEAKHURST NSW 2210",PEAKHURST,2210,-33.9633195,151.0680491
NSW,1-3H0B2OZ,Prime Earlwood,prime earlwood,"33 Wardell Road, EARLWOOD NSW 2206",EARLWOOD,2206,-33.9159977,151.1335999
NSW,1-3H3TGQ8,Metro Figtree,metro figtree,"103 BELLEVUE RD, FIGTREE NSW 2525",FIGTREE,2525,-34.42787884,150.85390728
NSW,1-3H8LCF8,Ampol Foodary Batemans Bay,ampol foodary batemans bay,"2 Princes Hwy Cnr Kings Hwy, BATEMANS BAY NSW 2536",BATEMANS BAY,2536,-35.699916,150.182162
NSW,1-3H94NS2,Metro Old Bar,metro old bar,"124 Old Bar Road, OLD BAR NSW 2430",OLD BAR,2430,-31.9668168,152.5746115
NSW,1-3H9UPRF,Ampol Breeze Moruya,ampol breeze moruya,"80-84 Campbell Street, MORUYA NSW 2537",MORUYA,2537,-35.912016,150.0823744
NSW,1-3H9VVR4,North Ryde Petroleum,north ryde petroleum,"118 Coxs Rd, North Ryde NSW 2113",NORTH RYDE,2113,-33.80141,151.13036
NSW,1-3HF9G98,Metro Guildford,metro guildford,"2 Rawson Road, GUILDFORD NSW 2161",GUILDFORD,2161,-33.8636594,151.0088717
NSW,1-3HG64C4,Transwest Fuels - CBD,transwest fuels - cbd,"166 Marius Street, TAMWORTH NSW 2340",TAMWORTH,2340,-31.0898478,150.932744
NSW,1-3HIM2AE,Powerfuel,powerfuel,"60 Hill Road, LURNEA NSW 2170",LURNEA,2170,-33.9315519,150.8966421
NSW,1-3HMK01O,Macquarie Valley Fuels,macquarie valley fuels,"4 Industry Avenue, NARROMINE NSW 2821",NARROMINE,2821,-32.2389062,148.2572727
NSW,1-3HQH2S4,Ampol Foodary Woolooware,ampol foodary woolooware,"100 Woolooware Road, WOOLOOWARE NSW 2230",WOOLOOWARE,2230,-34.052747,151.1408431
NSW,1-3HU2NQ6,Ampol Foodary Edmondson Park,ampol foodary edmondson park,"2072 Camden Valley Way, EDMONDSON PARK NSW 2174",EDMONDSON PARK,2072,-33.9566723,150.86491
NSW,1-3HV890Y,Ampol Foodary Lake Haven,ampol foodary lake haven,"1 Bannister Drive, LAKE HAVEN NSW 2263",LAKE HAVEN,2263,-33.2433852,151.5065393
NSW,1-3HVHPL8,BP Quirindi,bp quirindi,"4 Duke Street, QUIRINDI NSW 2343",QUIRINDI,2343,-31.5244003,150.6782616
NSW,1-3HXJIB6,Nundle Fuel and cafe,nundle fuel and cafe,"92 Jenkins Street, NUNDLE NSW 2340",NUNDLE,2340,-31.4595128,151.1287642
NSW,1-3HYHWT0,7-Eleven Rutherford,7-eleven rutherford,"319 New England Highway, 319 New England Highway, RUTHERFORD NSW 2320",RUTHERFORD,2320,-32.7132095,151.5184387
NSW,1-3HYOSQF,BP Jerrys Plains,bp jerrys plains,"23 Pagan Street, JERRYS PLAINS NSW 2330",JERRYS PLAINS,2330,-32.495982,150.908361
NSW,1-3I1DYIL,Shell Narooma,shell narooma,"16 Princes Highway, NAROOMA NSW 2546",NAROOMA,2546,-36.2133728,150.1233081
NSW,1-3I1FBCG,Gilgai General Store,gilgai general store,"9 Marsh Street, GILGAI NSW 2360",GILGAI,2360,-29.853559,151.1167631
NSW,1-3I1FYGA,BILPIN PETROLEUM,bilpin petroleum,"2742 Bells Line of Road, BILPIN NSW 2758",BILPIN,2742,-33.5069237,150.4990128
NSW,1-3I3D0N2,7-Eleven Greystanes,7-eleven greystanes,"601-605 Great Western Highway, GREYSTANES NSW 2145",GREYSTANES,2145,-33.808609,150.9359412
NSW,1-3I3GAXK,Metro Milperra,metro milperra,"144 Beaconsfield Street, MILPERRA NSW 2214",MILPERRA,2214,-33.9422197,150.9981621
NSW,1-3I3QRTG,Pearl Energy,pearl energy,"86-88 MacIntosh Street, FORSTER NSW 2428",FORSTER,2428,-32.1907933,152.5154818
NSW,1-3I4P3Z4,Sunset Petroleum,sunset petroleum,"Shop 1 140-146 Windang Road, WINDANG NSW 2528",WINDANG,2528,-34.5170031,150.8722039
NSW,1-3I6GC0W,BP Grafton South,bp grafton south,"1 Spring Street, SOUTH GRAFTON NSW 2460",SOUTH GRAFTON,2460,-29.7062781,152.9421803
NSW,1-3IDUPW6,Ampol Ulladulla,ampol ulladulla,"62 Deering Street, ULLADULLA NSW 2539",ULLADULLA,2539,-35.3627524,150.4735855
NSW,1-3IE2KZS,AVOCA FUEL,avoca fuel,"210 Avoca Drive, AVOCA BEACH NSW 2251",AVOCA BEACH,2251,-33.4640502,151.430637
NSW,1-3IETCF6,Woodham Petroleum Carinda,woodham petroleum carinda,"18 Colin Street, CARINDA NSW 2831",CARINDA,2831,-30.462916,147.6905352
NSW,1-3IGUV46,Metro Bexley,metro bexley,"630 Forest Road, BEXLEY NSW 2207",BEXLEY,2207,-33.9594103,151.1177521
NSW,1-3IHURO1,EG Ampol Cranebrook,eg ampol cranebrook,"&amp Laycock Drive, CRANEBROOK NSW 2749",CRANEBROOK,2749,-33.731281,150.706489
NSW,1-3IHV7LK,EG Ampol Lisarow,eg ampol lisarow,"900 Pacific Highway, LISAROW NSW 2250",LISAROW,2250,-33.3839775,151.3632246
NSW,1-3INCMAY,MOBIL BOOROWA,mobil boorowa,"63-65 Marsden Street, BOOROWA NSW 2586",BOOROWA,2586,-34.4414078,148.7162589
NSW,1-3IPBNUM,U-Go Moorebank Bridges Rd (Self- Serve),u-go moorebank bridges rd (self- serve),"2 Bridges Road, MOOREBANK NSW 2170",MOOREBANK,2170,-33.9283719,150.9326836
NSW,1-3ISICMG,Ampol Foodary Miller,ampol foodary miller,"86 Cartwright Avenue, MILLER NSW 2168",MILLER,2168,-33.9187785,150.8827572
NSW,1-3IURCAQ,Ampol Foodary Queanbeyan,ampol foodary queanbeyan,"84 MacQuoid Street, QUEANBEYAN EAST NSW 2620",QUEANBEYAN EAST,2620,-35.3490266,149.2443895
NSW,1-3IVXVE2,Ampol Foodary Queanbeyan,ampol foodary queanbeyan,"1 Suraci Place, QUEANBEYAN WEST NSW 2620",QUEANBEYAN WEST,2620,-35.3637288,149.2068077
NSW,1-3IY2HE4,Ampol Foodary Dubbo Talmac,ampol foodary dubbo talmac,"119 Bourke Street, DUBBO NSW 2830",DUBBO,2830,-32.243389,148.6091571
NSW,1-3IYHCWG,Yass Valley Servo,yass valley servo,"44 Comur Street, YASS NSW 2582",YASS,2582,-34.8404501,148.9102909
NSW,1-3J1K1CQ,METRO PETROLEUM CRESTWOOD,metro petroleum crestwood,"64 Uriarra Road, CRESTWOOD NSW 2620",CRESTWOOD,2620,-35.3464699,149.2246277
NSW,1-3J3GRUN,SPEEDWAY SACKVILLE STREET FAIRFIELD,speedway sackville street fairfield,"115 Sackville Street, FAIRFIELD NSW 2165",FAIRFIELD,2165,-33.8727231,150.9452203
NSW,1-3J3X24S,GATESHEAD INDEPENDENT FUEL,gateshead independent fuel,"66-68 Oxford Street, GATESHEAD NSW 2290",GATESHEAD,2290,-32.9783365,151.6835265
NSW,1-3J4D6L6,Ampol Foodary Nabiac,ampol foodary nabiac,"3964 Wallanbah Road, NABIAC NSW 2312",NABIAC,3964,-32.0986553,152.3754461
NSW,1-3J4TEHG,Bewong Roadhouse,bewong roadhouse,"2399 Princes Highway, BEWONG NSW 2540",BEWONG,2399,-35.0856873,150.5332276
NSW,1-3J5ATBK,MOBIL SALAMANDER BAY,mobil salamander bay,"15 Bagnall Beach Road, SALAMANDER BAY NSW 2317",SALAMANDER BAY,2317,-32.735267,152.1090326
NSW,1-3J71S2F,Ampol Foodary Forbes,ampol foodary forbes,"22-36 Parkes Road, FORBES NSW 2871",FORBES,2871,-33.3702492,148.0183359
NSW,1-3J7YQ26,Metro Petroleum Liverpool CBD,metro petroleum liverpool cbd,"86 Castlereagh Street, LIVERPOOL NSW 2170",LIVERPOOL,2170,-33.9246585,150.9199832
NSW,1-3J98ZHG,Ampol Foodary Dawson River,ampol foodary dawson river,"1 Manning River Drive, CUNDLETOWN NSW 2430",CUNDLETOWN,2430,-31.8930468,152.5060143
NSW,1-3JC7LM8,Pearl Energy Bathurst,pearl energy bathurst,"146 William Street, BATHURST NSW 2795",BATHURST,2795,-33.420495,149.5776413
NSW,1-3JCJ3CY,Ultra Randwick,ultra randwick,"345 Avoca Street, RANDWICK NSW 2031",RANDWICK,2031,-33.925341,151.2398191
NSW,1-3JDYXGY,Ampol Foodary Dubbo Dulhunty,ampol foodary dubbo dulhunty,"60 Windsor Parade, DUBBO NSW 2830",DUBBO,2830,-32.2545712,148.6318165
NSW,1-3JG311W,Ampol Foodary Crows Nest,ampol foodary crows nest,"111-121 Falcon Street, CROWS NEST NSW 2065",CROWS NEST,2065,-33.8286801,151.2060304
NSW,1-3JIPFC0,BP Ballina Travel Centre,bp ballina travel centre,"41 Bruxner Highway, WEST BALLINA NSW 2478",WEST BALLINA,2478,-28.8610674,153.5168821
NSW,1-3JITT5Y,7-Eleven Jerrabomberra,7-eleven jerrabomberra,"2 Ferdinand Lane, JERRABOMBERRA NSW 2619",JERRABOMBERRA,2619,-35.3804741,149.1961773
NSW,1-3JKF230,Ampol Foodary St Ives,ampol foodary st ives,"164 Mona Vale Road, ST IVES NSW 2075",ST IVES,2075,-33.7307318,151.157048
NSW,1-3JL2C7K,Ampol Foodary Mt Victoria,ampol foodary mt victoria,"36 Great Western Highway, MOUNT VICTORIA NSW 2786",MOUNT VICTORIA,2786,-33.5842412,150.2462537
NSW,1-3JMEIHF,Bungwahl Fuel and Liquour,bungwahl fuel and liquour,"2600 THE LAKES WAY, BUNGWAHL NSW 2423",BUNGWAHL,2600,-32.3872286,152.4446017
NSW,1-3JMXAFG,Ampol Foodary Wamberal,ampol foodary wamberal,"656-658 THE ENTRANCE ROAD, WAMBERAL NSW 2260",WAMBERAL,2260,-33.4232503,151.4382155
NSW,1-3JMXX7F,7-Eleven Orange North,7-eleven orange north,"68-74 MOLONG RD, ORANGE NSW 2800",ORANGE,2800,-33.2696272,149.0822852
NSW,1-3JOZW5E,Shell Xroads Cranebrook,shell xroads cranebrook,"1-21 CRANEBROOK RD, CRANEBROOK NSW 2749",CRANEBROOK,2749,-33.6892535,150.7267128
NSW,1-3JQTL6T,Ampol Foodary Lane Cove West,ampol foodary lane cove west,"UNIT 1 237-245 BURNS BAY RD, LANE COVE WEST NSW 2066",LANE COVE WEST,2066,-33.816452,151.1513941
NSW,1-3JTFHIQ,Gloucester Tyres & Auto Centre,gloucester tyres & auto centre,"89-91 CHURCH ST, GLOUCESTER NSW 2422",GLOUCESTER,2422,-32.00847472,151.95765445
NSW,1-3JTJK1G,Enhance Willow Tree,enhance willow tree,"119 NEW ENGLAND HWY, WILLOW TREE NSW 2339",WILLOW TREE,2339,-31.6543159,150.7346426
NSW,1-3JTXVIY,Quaama General Store,quaama general store,"COBARGO ST, QUAAMA NSW 2550",QUAAMA,2550,-36.4620318,149.8690159
NSW,1-3JVJWBT,Ampol Foodary Kirrawee,ampol foodary kirrawee,"487 Princess Hwy, Kirrawee NSW 2232",KIRRAWEE,2232,-34.029162,151.080854
NSW,1-3JXLWF4,Enhance Freshwater,enhance freshwater,"46 ALBERT ST, FRESHWATER NSW 2096",FRESHWATER,2096,-33.77739497,151.28695239
NSW,1-3JY2DQU,Ampol Foodary Grafton,ampol foodary grafton,"179 PRINCE ST, GRAFTON NSW 2460",GRAFTON,2460,-29.6860015,152.9371089
NSW,1-3JY4A5A,The Woodville Store,the woodville store,"229 CLARENCE TOWN RD, WOODVILLE NSW 2321",WOODVILLE,2321,-32.67611636,151.60968731
NSW,1-3K1VI1G,Ampol Foodary Eden,ampol foodary eden,"159 IMLAY ST, EDEN NSW 2551",EDEN,2551,-37.0632409,149.9044021
NSW,1-3K1WT2K,Ampol Foodary Merimbula,ampol foodary merimbula,"19-25 MERIMBULA DR, MERIMBULA NSW 2548",MERIMBULA,2548,-36.8875785,149.9089176
NSW,1-3K3IJF9,Ampol Foodary Coogee,ampol foodary coogee,"146-148 COOGEE BAY RD, COOGEE NSW 2034",COOGEE,2034,-33.9198931,151.2517479
NSW,1-3K3T46C,Metro Petroleum Epping,metro petroleum epping,"30 BRIDGE ST, EPPING NSW 2121",EPPING,2121,-33.7748061,151.0797363
NSW,1-3K499OI,Metro Petroleum Keiraville,metro petroleum keiraville,"270 GIPPS RD, KEIRAVILLE NSW 2500",KEIRAVILLE,2500,-34.4147456,150.875125
NSW,1-3K5TRH6,Ampol Moama Diesel Stop,ampol moama diesel stop,"21 NEIL ST, MOAMA NSW 2731",MOAMA,2731,-36.0787252,144.7489637
NSW,1-3K600V2,Metro Petroleum Faulconbridge,metro petroleum faulconbridge,"690A GREAT WESTERN HWY, FAULCONBRIDGE NSW 2776",FAULCONBRIDGE,2776,-33.7065977,150.5266254
NSW,1-3K6GI3D,SPEEDWAY AUSTRAL,speedway austral,"394 FIFTEENTH AV, AUSTRAL NSW 2179",AUSTRAL,2179,-33.9194838,150.8142143
NSW,1-3K6SP9Q,Ampol Foodary Kemps Creek,ampol foodary kemps creek,"1163-1167 MAMRE RD, KEMPS CREEK NSW 2178",KEMPS CREEK,1163,-33.8705247,150.7952344
NSW,1-3K85Y57,Ampol Denham Court,ampol denham court,"194 CAMPBELLTOWN RD, DENHAM COURT NSW 2565",DENHAM COURT,2565,-33.9994594,150.8418505
NSW,1-3K9FRPS,Ampol Foodary Bondi North,ampol foodary bondi north,"321 OLD SOUTH HEAD RD, NORTH BONDI NSW 2026",NORTH BONDI,2026,-33.8847266,151.2684754
NSW,1-3K9GS1U,Ampol Iluka,ampol iluka,"42 SPENSER ST, ILUKA NSW 2466",ILUKA,2466,-29.405139,153.3497887
NSW,1-3KBI3NY,BP South Hurstville,bp south hurstville,"63 CONNELLS POINT RD, SOUTH HURSTVILLE NSW 2221",SOUTH HURSTVILLE,2221,-33.9779803,151.103984
NSW,1-3KBIU3C,Metro Petroleum Appin,metro petroleum appin,"34 APPIN RD, APPIN NSW 2560",APPIN,2560,-34.2037991,150.7866612
NSW,1-3KC7W1M,Ampol Breeze Bombala,ampol breeze bombala,"159-161 MAYBE ST, BOMBALA NSW 2632",BOMBALA,2632,-36.91240258,149.23745769
NSW,1-3KCKI9U,Cooranbong Petroleum,cooranbong petroleum,"435 FREEMANS DR, COORANBONG NSW 2265",COORANBONG,2265,-33.0882903,151.4501163
NSW,1-3KEQ6WQ,Shell Reddy  Express St Marys,shell reddy express st marys,"61-63 CHRISTIE ST, ST MARYS NSW 2760",ST MARYS,2760,-33.7474573,150.7673159
NSW,1-3KEQ7D8,Ampol Foodary Gunnedah,ampol foodary gunnedah,"21 ABBOTT ST, GUNNEDAH NSW 2380",GUNNEDAH,2380,-30.9802088,150.2561853
NSW,1-3KFO848,Metro Petroleum Kurri Kurri Northcote,metro petroleum kurri kurri northcote,"47-49 NORTHCOTE ST, KURRI KURRI NSW 2327",KURRI KURRI,2327,-32.8111804,151.4793138
NSW,1-3KHRQL8,7-Eleven Singleton,7-eleven singleton,"1 MAITLAND RD, SINGLETON NSW 2330",SINGLETON,2330,-32.5693882,151.1799666
NSW,1-3KHSF24,Shell Reddy Express Beresfield,shell reddy express beresfield,"93 WEAKLEYS DR, BERESFIELD NSW 2322",BERESFIELD,2322,-32.80102,151.63511
NSW,1-3KIFONE,DENI PETROLEUM,deni petroleum,"90 DAVIDSON ST, DENILIQUIN NSW 2710",DENILIQUIN,2710,-35.5266679,144.975378
NSW,1-3KKK8TW,Mobil Appin,mobil appin,"136 APPIN RD, APPIN NSW 2560",APPIN,2560,-34.1951669,150.7899791
NSW,1-3KL1TWX,U-Go Yamba (Self- serve),u-go yamba (self- serve),"22 TREELANDS DR, YAMBA NSW 2464",YAMBA,2464,-29.42700427,153.32792213
NSW,1-3KN6Z7B,South Kempsey Local Servo,south kempsey local servo,"22 CARRI ST, SOUTH KEMPSEY NSW 2440",SOUTH KEMPSEY,2440,-31.0914628,152.8369875
NSW,1-3KNZS08,Pearl Energy Mittagong Bowral Rd,pearl energy mittagong bowral rd,"65 BOWRAL RD, MITTAGONG NSW 2575",MITTAGONG,2575,-34.4524291,150.4380813
NSW,1-3KO5OJC,BP Oberon Truckstop,bp oberon truckstop,"24 ALBION ST, OBERON NSW 2787",OBERON,2787,-33.6987458,149.8599695
NSW,1-3KPA1S0,Ampol Foodary Pheasants Nest South Bound ,ampol foodary pheasants nest south bound,"Lot 12, South Western Freeway, Pheasants Nest NSW 2574",PHEASANTS NEST,2574,-34.282907,150.639027
NSW,1-3KPB7QB,Ampol Foodary Pheasants Nest Northbound,ampol foodary pheasants nest northbound,"Lot no 13 South Western Freeway, Pheasants Nest NSW 2574",PHEASANTS NEST,2574,-34.283188,150.636449
NSW,1-3KPTOUG,BP CAMDEN,bp camden,"12 ARGYLE ST, CAMDEN NSW 2570",CAMDEN,2570,-34.0535348,150.699612
NSW,1-3KQK2EM,BP Warners Bay,bp warners bay,"9 KING ST, WARNERS BAY NSW 2282",WARNERS BAY,2282,-32.9684297,151.6513485
NSW,1-3KRVVYG,Ultra Harden,ultra harden,"379 ALBURY ST, HARDEN NSW 2587",HARDEN,2587,-34.5477035,148.3459391
NSW,1-3KSFC6G,Ampol Foodary Gosford West,ampol foodary gosford west,"283 MANNS RD, WEST GOSFORD NSW 2250",WEST GOSFORD,2250,-33.4166261,151.3242562
NSW,1-3KT7A1C,EG Ampol Gregory Hills,eg ampol gregory hills,"33 VILLAGE CCT, GREGORY HILLS NSW 2557",GREGORY HILLS,2557,-34.0252515,150.7766419
NSW,1-3KT7DQ4,Metro Petroleum,metro petroleum,"96 HOXTON PARK RD, LURNEA NSW 2170",LURNEA,2170,-33.92764,150.90604
NSW,1-3KVV6RC,Ampol Foodary Camden,ampol foodary camden,"21 BARSDEN ST, CAMDEN NSW 2570",CAMDEN,2570,-34.0580662,150.6914307
NSW,1-3KW0IQI,Yourfuel Batlow,yourfuel batlow,"18 PIONEER ST, BATLOW NSW 2730",BATLOW,2730,-35.5196004,148.1458936
NSW,1-3KX58D2,Prime Blakehurst,prime blakehurst,"338 Princes Hwy, BLAKEHURST NSW 2221",BLAKEHURST,2221,-33.986619,151.112644
NSW,1-3KXPJBG,Metro Bow Bowing,metro bow bowing,"100 CAMPBELLTOWN RD, MINTO NSW 2566",MINTO,2566,-34.0238052,150.8352155
NSW,1-3KYZXLN,Ampol Holbrook,ampol holbrook,"130 ALBURY ST, HOLBROOK NSW 2644",HOLBROOK,2644,-35.7210165,147.3164069
NSW,1-3L0MEWU,7-Eleven Ambarvale,7-eleven ambarvale,"67 WOODHOUSE DR, AMBARVALE NSW 2560",AMBARVALE,2560,-34.0873516,150.7997124
NSW,1-3L46BDE,BP Albion Park,bp albion park,"UNIT 1 83 PRINCES HWY, ALBION PARK RAIL NSW 2527",ALBION PARK RAIL,2527,-34.5535861,150.7919775
NSW,1-3L4QD8I,Ampol Foodary Casino Centre St,ampol foodary casino centre st,"96 CENTRE ST, CASINO NSW 2470",CASINO,2470,-28.8653956,153.0450654
NSW,1-3L6XG3K,Woodham Petroleum Nyngan,woodham petroleum nyngan,"16 LAWLOR ST, NYNGAN NSW 2825",NYNGAN,2825,-31.55483043,147.19153293
NSW,1-3L6XS6T,Ampol Foodary Coolongolook,ampol foodary coolongolook,"Corner Pacific Highway and Midge Street, Coolongolook NSW 2423",COOLONGOLOOK,2423,-32.216448,152.322777
NSW,1-3L7IZD0,Locals Servo,locals servo,"148 MAYNE ST, MURRURUNDI NSW 2338",MURRURUNDI,2338,-31.7613059,150.8313866
NSW,1-3L7T5ZW,SHELL Parramatta CVRO (Self-serve),shell parramatta cvro (self-serve),"1 DURHAM ST, ROSEHILL NSW 2142",ROSEHILL,2142,-33.82410264,151.03733463
NSW,1-3L7XJUY,SHELL NEVERTIRE TRUCKSTOP,shell nevertire truckstop,"Mitchell Highway, Nevertire NSW 2826",NEVERTIRE,2826,-31.8388539,147.7187231
NSW,1-3L7XK7Q,SHELL WAGGA WAGGA TRUCKSTOP,shell wagga wagga truckstop,"Lot 4, Bomen Road, Wagga Wagga NSW 2650",WAGGA WAGGA,2650,-35.073137,147.411304
NSW,1-3L7Z79K,SHELL TAMWORTH TRUCKSTOP (unmanned),shell tamworth truckstop (unmanned),"9-13 Gunnedah Road, Tamworth NSW 2340",TAMWORTH,2340,-31.095575,150.908482
NSW,1-3L818HO,Shell Port Kembla Truckstop (Unmanned),shell port kembla truckstop (unmanned),"87-89, Flinders Street, Port Kembla NSW 2505",PORT KEMBLA,2505,-34.469597,150.894989
NSW,1-3L9CQ4C,Metro Petroleum Rosebery,metro petroleum rosebery,"395 GARDENERS RD, ROSEBERY NSW 2018",ROSEBERY,2018,-33.9224674,151.20245839
NSW,1-3LCLPGR,Ampol Foodary Tamworth,ampol foodary tamworth,"109 GUNNEDAH RD, TAMINDA NSW 2340",TAMINDA,2340,-31.097319,150.895551
NSW,1-3LDMGH0,Tasco Bunnaloo,tasco bunnaloo,"RMB 520, Bunnaloo NSW 2731",BUNNALOO,2731,-35.806156,144.639746
NSW,1-3LE0CSO,Mobil Muswellbrook North,mobil muswellbrook north,"147 BRIDGE ST, MUSWELLBROOK NSW 2333",MUSWELLBROOK,2333,-32.2591233,150.8902759
NSW,1-3LFFU3U,BP Leppington Town Centre,bp leppington town centre,"221 BRINGELLY RD, LEPPINGTON NSW 2179",LEPPINGTON,2179,-33.9526591,150.8144485
NSW,1-3LHWXS8,Speedway Cabramatta,speedway cabramatta,"267 John St, CABRAMATTA WEST NSW 2166",CABRAMATTA WEST,2166,-33.89235,150.91774
NSW,1-3LIU8YQ,Ampol Foodary Macksville,ampol foodary macksville,"22 COOPER ST, MACKSVILLE NSW 2447",MACKSVILLE,2447,-30.7097466,152.9198214
NSW,1-3LJXF2F,Speedway Roseville,speedway roseville,"20-22 BABBAGE RD, ROSEVILLE NSW 2069",ROSEVILLE,2069,-33.7780213,151.1945551
NSW,1-3LL65U1,Ampol Foodary Belrose,ampol foodary belrose,"153 Forest Way, Belrose NSW 2085",BELROSE,2085,-33.734678,151.221102
NSW,1-3LMJIP2,Metro Petroleum Saratoga,metro petroleum saratoga,"13-15 VILLAGE RD, SARATOGA NSW 2251",SARATOGA,2251,-33.4753558,151.3532147
NSW,1-3LNG5TK,Hanlon Enterprises Fuel,hanlon enterprises fuel,"77 PRINCE ST, JUNEE NSW 2663",JUNEE,2663,-34.8557555,147.5755659
NSW,1-3LOCTUV,BP Bennetts Green,bp bennetts green,"20 PACIFIC HWY, BENNETTS GREEN NSW 2290",BENNETTS GREEN,2290,-32.9971536,151.6849801
NSW,1-3LQ7JS8,Metro Petroleum Earlwood,metro petroleum earlwood,"281 HOMER ST, EARLWOOD NSW 2206",EARLWOOD,2206,-33.9263841,151.1276886
NSW,1-3LQNSMO,Metro Petroleum Toongabbie,metro petroleum toongabbie,"59 THE CRESCENT, TOONGABBIE NSW 2146",TOONGABBIE,2146,-33.7959541,150.9297948
NSW,1-3LS5TJ0,Ampol Foodary Northend Wagga Wagga,ampol foodary northend wagga wagga,"170 FITZMAURICE ST, WAGGA WAGGA NSW 2650",WAGGA WAGGA,2650,-35.1028977,147.3678977
NSW,1-3LUYK74,APCO Wagga Wagga,apco wagga wagga,101-107 Hammond Ave East Wagga Wagga NSW 2650,HAMMOND AVE EAST WAGGA WAGGA,2650,-35.121469529214,147.38903761
NSW,1-3LWUOLY,Ampol Foodary Eastern Creek Eastbound,ampol foodary eastern creek eastbound,"M4 Motorway Eastbound	, Eastern Creek NSW 2766",EASTERN CREEK,2766,-33.801629,150.885988
NSW,1-3LWVAT3,MEDCO INVERELL,medco inverell,"155 BYRON ST, INVERELL NSW 2360",INVERELL,2360,-29.7713506,151.1153492
NSW,1-3LXRM0O,Ampol Foodary Eastern Creek Westbound,ampol foodary eastern creek westbound,"M4 Motorway westbound, EASTERN CREEK NSW 2766",EASTERN CREEK,2766,-33.80232,150.8829
NSW,1-3LYSJ8T,BP Smithfield NSW,bp smithfield nsw,"846 THE HORSLEY DRIVE, SMITHFIELD NSW 2164",SMITHFIELD,2164,-33.8515694,150.9256841
NSW,1-3LZF0KI,Ampol Foodary Greenacre,ampol foodary greenacre,"87-91 ROBERTS RD, GREENACRE NSW 2190",GREENACRE,2190,-33.9046146,151.0648619
NSW,1-3M1R89M,Mobil Port Macquarie,mobil port macquarie,"59 GORDON ST, PORT MACQUARIE NSW 2444",PORT MACQUARIE,2444,-31.43281,152.91273
NSW,1-3M1RUOA,Endeavour Petroleum Pty Ltd,endeavour petroleum pty ltd,"3 Neil ST, Moama NSW 2731",MOAMA,2731,-36.08363,144.74801
NSW,1-3M1SEPE,Grenfell Local Store,grenfell local store,"83 CAMP ST, GRENFELL NSW 2810",GRENFELL,2810,-33.8958351,148.16513669
NSW,1-3M29V2N,Ampol Foodary Kempsey South,ampol foodary kempsey south,"52 LACHLAN ST, SOUTH KEMPSEY NSW 2440",SOUTH KEMPSEY,2440,-31.0936184,152.837045
NSW,1-3M2QRZ8,Mobil Huskisson,mobil huskisson,"2 TOMERONG ST, HUSKISSON NSW 2540",HUSKISSON,2540,-35.0358369,150.6667363
NSW,1-3M2QUJG,TEMCO Petroleum,temco petroleum,"190 WATERLOO RD, GREENACRE NSW 2190",GREENACRE,2190,-33.90639479,151.05699356
NSW,1-3M2W4QA,Mobil Coolongolook,mobil coolongolook,"21 BENGAL ST, COOLONGOLOOK NSW 2423",COOLONGOLOOK,2423,-32.2182496,152.3215717
NSW,1-3M4V89K,Wakool Agri Services Pty Ltd,wakool agri services pty ltd,"6066 WAKOOL RD, WAKOOL NSW 2710",WAKOOL,6066,-35.4723185,144.404675
NSW,1-3M5AZYL,Bargo Petroleum,bargo petroleum,"UNIT 2 3030 REMEMBRANCE DVWY, BARGO NSW 2574",BARGO,3030,-34.2545843,150.57265647
NSW,1-3M7XZXY,Metro Petroleum Kelso,metro petroleum kelso,"16 INGERSOLE DR, KELSO NSW 2795",KELSO,2795,-33.42116006,149.62447652
NSW,1-3M8YAR8,Mobil Broken Hill,mobil broken hill,"535 ARGENT ST, BROKEN HILL NSW 2880",BROKEN HILL,2880,-31.953118,141.4745282
NSW,1-3MAXXLK,Mobil Ocean Drive,mobil ocean drive,"15 OCEAN DR, PORT MACQUARIE NSW 2444",PORT MACQUARIE,2444,-31.4355452,152.8999388
NSW,1-3MAY6WC,Speedway Court Road,speedway court road,"32 COURT RD, FAIRFIELD NSW 2165",FAIRFIELD,2165,-33.8701219,150.9581328
NSW,1-3MCI3W2,Mobil Taree,mobil taree,"132 MANNING RIVER DR, TAREE SOUTH NSW 2430",TAREE SOUTH,2430,-31.9337145,152.4676637
NSW,1-3MK30SA,Johns River Tavern,johns river tavern,"28 JOHNS RIVER RD, JOHNS RIVER NSW 2443",JOHNS RIVER,2443,-31.7325959,152.693675
NSW,1-3MKAIWC,Enhance East Corrimal,enhance east corrimal,"2-4 RAILWAY ST, EAST CORRIMAL NSW 2518",EAST CORRIMAL,2518,-34.3743966,150.90882
NSW,1-3MKM96A,Ampol Smeaton Grange,ampol smeaton grange,"1 DUNN RD, SMEATON GRANGE NSW 2567",SMEATON GRANGE,2567,-34.0323128,150.7561607
NSW,1-3MKMYP6,SHELL CHIPPING NORTON,shell chipping norton,"7 NEWBRIDGE RD, CHIPPING NORTON NSW 2170",CHIPPING NORTON,2170,-33.9283919,150.9772006
NSW,1-3MWTF1K,Bulga Servo,bulga servo,"2046 PUTTY RD, BULGA NSW 2330",BULGA,2046,-32.6529228,151.0201886
NSW,1-3MWTFH9,Metro Wollongong,metro wollongong,"394 CROWN ST, WOLLONGONG NSW 2500",WOLLONGONG,2500,-34.4257988,150.8776085
NSW,1-3MWZVGI,Logan & Hitchens,logan & hitchens,"53 LAKE ST, GANMAIN NSW 2702",GANMAIN,2702,-34.7924137,147.0384362
NSW,1-3MXBS14,Wagga Fuel (Leeton),wagga fuel (leeton),"98 KURRAJONG AV, LEETON NSW 2705",LEETON,2705,-34.55486,146.408893
NSW,1-3MYWBUK,7-Eleven Metford,7-eleven metford,"456, Metford Road, Metford NEW SOUTH WALES 2323",,2323,-32.761177,151.600376
NSW,1-3MZOMEC,Transwest Mungindi,transwest mungindi,"30 ST GEORGE ST, MUNGINDI NSW 2406",MUNGINDI,2406,-28.9781544,148.9980125
NSW,1-3N0OKXJ,Bombala Servo,bombala servo,"77 MAYBE ST, BOMBALA NSW 2632",BOMBALA,2632,-36.909299,149.2414277
NSW,1-3N0PDYF,Ampol Dunedoo,ampol dunedoo,"20 BOLARO ST, DUNEDOO NSW 2844",DUNEDOO,2844,-32.0165641,149.398714
NSW,1-3N0PO3R,Powerfuel,powerfuel,"114 BATHURST ST, CONDOBOLIN NSW 2877",CONDOBOLIN,2877,-33.08871527,147.1468947
NSW,1-3N41IJY,BP Tornik,bp tornik,"2-8 DUNCANS RD, CLARENZA NSW 2460",CLARENZA,2460,-29.7038941,152.95755022
NSW,1-3N6RO9A,Cringila fuel,cringila fuel,"95 FIVE ISLANDS RD, CRINGILA NSW 2502",CRINGILA,2502,-34.46599357,150.87223486
NSW,1-3N9H5UH,METRO ROZELLE,metro rozelle,"127 VICTORIA RD, ROZELLE NSW 2039",ROZELLE,2039,-33.8620438,151.1676701
NSW,1-3NC0JPK,Mobil Junee,mobil junee,"33 SEIGNIOR ST, JUNEE NSW 2663",JUNEE,2663,-34.8703048,147.582397
NSW,1-3NDVYNL,Pearl Energy Mona Vale,pearl energy mona vale,"79 BARRENJOEY RD, MONA VALE NSW 2103",MONA VALE,2103,-33.6741746,151.3102354
NSW,1-3NFUV1O,Ampol Finley Diesel Stop,ampol finley diesel stop,"Cnr Newell Hwy & Rice Mill Rd, Finley NSW 2713",FINLEY,2713,-35.62821,145.58296
NSW,1-3NIOTKK,Liberty Coonabarbran,liberty coonabarbran,"51 CHARLES ST, COONABARABRAN NSW 2357",COONABARABRAN,2357,-31.2715971,149.2796368
NSW,1-3NL40HY,Ampol Griffith,ampol griffith,"2-4 MACKAY AV, GRIFFITH NSW 2680",GRIFFITH,2680,-34.2908767,146.0630818
NSW,1-3NRURSY,METRO ROADHOUSE COOMA,metro roadhouse cooma,"556 SNOWY MOUNTAINS HWY, DAIRYMANS PLAINS NSW 2630",DAIRYMANS PLAINS,2630,-36.2403671,149.0655724
NSW,1-3NWYL9A,Shell Lane Cove,shell lane cove,"254 BURNS BAY RD, LANE COVE NSW 2066",LANE COVE,2066,-33.8171912,151.1518756
NSW,1-3NXANDC,McNabb Mobil Griffith,mcnabb mobil griffith,"2-8 OXLEY ST, GRIFFITH NSW 2680",GRIFFITH,2680,-34.2949689,146.0643533
NSW,1-3O2LSJ0,Shell Blaxland,shell blaxland,"126 GREAT WESTERN HWY, BLAXLAND NSW 2774",BLAXLAND,2774,-33.7451032,150.6109079
NSW,1-3O3PMHV,Astron YASS,astron yass,"279 COMUR ST, YASS NSW 2582",YASS,2582,-34.8483942,148.9163097
NSW,1-3OBQ5MK,Ampol Alstonville,ampol alstonville,"73 MAIN ST, ALSTONVILLE NSW 2477",ALSTONVILLE,2477,-28.8411584,153.4388702
NSW,1-3ODRCKA,BP Wagga Wagga,bp wagga wagga,"180 EDWARD ST, WAGGA WAGGA NSW 2650",WAGGA WAGGA,2650,-35.118505,147.3639651
NSW,1-3OHOWXO,Lowes BP Goolgowi,lowes bp goolgowi,"18-20 ZARA ST, GOOLGOWI NSW 2652",GOOLGOWI,2652,-33.98043211,145.71145871
NSW,1-3OIK5I4,7-Eleven Woy Woy,7-eleven woy woy,"83 RAWSON RD, WOY WOY NSW 2256",WOY WOY,2256,-33.4937927,151.3201614
NSW,1-3OJGXXO,BP Tighes Hill,bp tighes hill,"110 ELIZABETH ST, TIGHES HILL NSW 2297",TIGHES HILL,2297,-32.9060219,151.7587207
NSW,1-3OK39Y4,United Mayfield South,united mayfield south,"86-88 MAITLAND RD, MAYFIELD NSW 2304",MAYFIELD,2304,-32.90309546,151.74378193
NSW,1-3OO31PW,Metro Canley Heights,metro canley heights,"190 CANLEY VALE RD, CANLEY HEIGHTS NSW 2166",CANLEY HEIGHTS,2166,-33.8845269,150.928557
NSW,1-3OQDV8N,Metro Kurri Kurri,metro kurri kurri,"1 VICTORIA ST, KURRI KURRI NSW 2327",KURRI KURRI,2327,-32.82385,151.486565
NSW,1-3OR5OZ1,Nanaglen General store,nanaglen general store,"16-18 NANA ST, NANA GLEN NSW 2450",NANA GLEN,2450,-30.1380367,153.0071805
NSW,1-3ORKRFG,BP South Tamworth,bp south tamworth,"399 Goonoo Goonoo Rd, Hillvue NSW 2340",HILLVUE,2340,-31.12619,150.92348
NSW,1-3OUI0JF,Astron Beresfield,astron beresfield,"261 ANDERSON DR, BERESFIELD NSW 2322",BERESFIELD,2322,-32.7991122,151.645069
NSW,1-3OY9EL0,Liberty Bourke,liberty bourke,"96-104 ANSON ST, BOURKE NSW 2840",BOURKE,2840,-30.0954978,145.9437461
NSW,1-3OZ0JT0,BP Somerton,bp somerton,"1, Oxley Hwy, Somerton NSW 2340",SOMERTON,2340,-30.9373,150.63497
NSW,1-3OZT3ED,Shell Kenthurst,shell kenthurst,"86 KENTHURST RD, KENTHURST NSW 2156",KENTHURST,2156,-33.6823514,151.0107027
NSW,1-3OZYLN4,Shell Maroota,shell maroota,"1563 WISEMANS FERRY RD, MAROOTA NSW 2756",MAROOTA,1563,-33.47230749,150.97497716
NSW,1-3P1AL7V,MOBIL WEST WYALONG,mobil west wyalong,"298 NEELD ST, WEST WYALONG NSW 2671",WEST WYALONG,2671,-33.92394303,147.21675075
NSW,1-3P74WO3,METRO PETROLEUM GRENFELL,metro petroleum grenfell,"75 CAMP ST, GRENFELL NSW 2810",GRENFELL,2810,-33.8954685,148.1630407
NSW,1-3P7R5M8,Costco Lake Macquarie (Members only),costco lake macquarie,"1 CRESSY RD, BOOLAROO NSW 2284",BOOLAROO,2284,-32.9461109,151.6280542
NSW,1-3P871JO,Ampol Unanderra,ampol unanderra,"15 GLASTONBURY AV, UNANDERRA NSW 2526",UNANDERRA,2526,-34.4587464,150.8566699
NSW,1-3P8L5TC,Liberty Albert,liberty albert,"9, Melrose Road, Albert NSW 2873",ALBERT,2873,-32.35786,147.507
NSW,1-3P9ZKAU,Access Fuels,access fuels,"140-142 JUBILEE ST, TOWNSEND NSW 2463",TOWNSEND,2463,-29.4668591,153.2256947
NSW,1-3PCMHSZ,Metro Lucknow,metro lucknow,"4613 MITCHELL HWY, LUCKNOW NSW 2800",LUCKNOW,4613,-33.346783,149.1621576
NSW,1-3PD2U9V,Metro Petroleum Lavington,metro petroleum lavington,"SHOP 2 407 WAGGA RD, LAVINGTON NSW 2641",LAVINGTON,2641,-36.0459798,146.9413509
NSW,1-3PE2D9Y,Liberty Bangalow,liberty bangalow,"54 BYRON ST, BANGALOW NSW 2479",BANGALOW,2479,-28.6861987,153.5257726
NSW,1-3PGQ7K0,LOWES NORTH STAR OPT,lowes north star opt,"3 EDWARD ST, NORTH STAR NSW 2408",NORTH STAR,2408,-28.9321755,150.3916809
NSW,1-3PI8IGO,BP Erskine Park Truckstop (unmanned),bp erskine park truckstop (unmanned),"LENORE DRIVE (CNR TEMPLAR ROAD), Erskine Park NSW 2759",ERSKINE PARK,2759,-33.81647,150.79715
NSW,1-3PL49LE,BLOK INDUSTRIAL,blok industrial,"119 JUBILEE ST, TOWNSEND NSW 2463",TOWNSEND,2463,-29.4653517,153.2272775
NSW,1-3PLJ2R0,Mobil Forster,mobil forster,"131 THE LAKES WAY, FORSTER NSW 2428",FORSTER,2428,-32.2042598,152.5202326
NSW,1-3PNQUM8,BP Tahmoor,bp tahmoor,"2710 REMEMBRANCE DVWY, TAHMOOR NSW 2573",TAHMOOR,2710,-34.2294569,150.5879918
NSW,1-3PPW2UQ,The Wooli store,the wooli store,"381 NORTH ST, WOOLI NSW 2462",WOOLI,2462,-29.8509324,153.2568443
NSW,1-3PW7M58,EG Ampol Mittagong,eg ampol mittagong,"96-98 BOWRAL RD, MITTAGONG NSW 2575",MITTAGONG,2575,-34.4531503,150.4377494
NSW,1-3PWL2WM,Monaghan's Fuel Supplies,monaghan's fuel supplies,"27 HASTINGS ST, WAUCHOPE NSW 2446",WAUCHOPE,2446,-31.4544413,152.7323007
NSW,1-3PWLJQ6,Metro Petroleum West Wallsend,metro petroleum west wallsend,"7 WITHERS ST, WEST WALLSEND NSW 2286",WEST WALLSEND,2286,-32.9036108,151.5814704
NSW,1-3PWMJ2E,Ampol Inverell Road House,ampol inverell road house,"143-149 WARIALDA RD, INVERELL NSW 2360",INVERELL,2360,-29.7740701,151.0915098
NSW,1-3PWW90Q,Shell Little Topar,shell little topar,"11908 BARRIER HWY, LITTLE TOPAR NSW 2880",LITTLE TOPAR,2880,-31.77906898,142.22776873
NSW,1-3Q16TPC,Pearl Energy Belmont,pearl energy belmont,"494 PACIFIC HWY, BELMONT NSW 2280",BELMONT,2280,-33.0326022,151.6605244
NSW,1-3Q1PF0G,Ampol Fairy Meadow,ampol fairy meadow,"30-34 PRINCES HWY, FAIRY MEADOW NSW 2519",FAIRY MEADOW,2519,-34.3892496,150.8941056
NSW,1-3Q1Q78G,Ulmarra Liberty Post Office,ulmarra liberty post office,"2449 BIG RIVER WAY, ULMARRA NSW 2462",ULMARRA,2449,-29.6310643,153.0294786
NSW,1-3Q2N94K,Brunswick Village Greens,brunswick village greens,"151 TWEED ST, BRUNSWICK HEADS NSW 2483",BRUNSWICK HEADS,2483,-28.5535803,153.5457565
NSW,1-3Q5J35G,United Petroleum Windang,united petroleum windang,"217-221 Windang Rd, Windang NSW 2528",WINDANG,2528,-34.53123,150.86916
NSW,1-3Q77D24,MOBIL WARIALDA,mobil warialda,"46 GEDDES ST, WARIALDA NSW 2402",WARIALDA,2402,-29.5427956,150.5749095
NSW,1-3Q780TE,BILAMBIL POST OFFICE,bilambil post office,"381 BILAMBIL RD, BILAMBIL NSW 2486",BILAMBIL,2486,-28.2244936,153.4666449
NSW,1-3Q850HK,Shell Croydon,shell croydon,"418-424 LIVERPOOL RD, CROYDON NSW 2132",CROYDON,2132,-33.888152,151.1150622
NSW,1-3Q8Z6YF,Tucabia village store,tucabia village store,"12 CORDINI ST, TUCABIA NSW 2462",TUCABIA,2462,-29.6679245,153.1082492
NSW,1-3QBGBV4,Woodham Petroleum Gilgandra (Unmanned),woodham petroleum gilgandra (unmanned),"2 ENTERPRISE DR, GILGANDRA NSW 2827",GILGANDRA,2827,-31.717745,148.65323031
NSW,1-3QBH5YZ,shell long jetty,shell long jetty,"290-294 THE ENTRANCE ROAD, LONG JETTY NSW 2261",LONG JETTY,2261,-33.356869,151.4862292
NSW,1-3QEO56D,Enhance Kiama,enhance kiama,"35 COLLINS ST, KIAMA NSW 2533",KIAMA,2533,-34.668042,150.8532894
NSW,1-3QGE3CI,Trundle Fuel,trundle fuel,"77 FORBES ST, TRUNDLE NSW 2875",TRUNDLE,2875,-32.92192812,147.71025158
NSW,1-3QGXRWU,Bangalow General Store,bangalow general store,"16 GRANUAILLE RD, BANGALOW NSW 2479",BANGALOW,2479,-28.68521444,153.52165294
NSW,1-3QJHOJT,Ampol Barraba,ampol barraba,"21 QUEEN ST, BARRABA NSW 2347",BARRABA,2347,-30.3829053,150.6096852
NSW,1-3QJHOX9,7-Eleven Bungarribee,7-eleven bungarribee,"5/100 Eastern Rd, Bungarribee NSW 2767",BUNGARRIBEE,2767,-33.77097,150.85895
NSW,1-3QNA1I8,Taylors Corner,taylors corner,"89 EWING ST, MURWILLUMBAH NSW 2484",MURWILLUMBAH,2484,-28.3240043,153.3952823
NSW,1-3QQPWT6,United Petroleum Murrurundi,united petroleum murrurundi,"226 MAYNE ST, MURRURUNDI NSW 2338",MURRURUNDI,2338,-31.7568366,150.8231891
NSW,1-3QRLZNW,Mobil Forster North,mobil forster north,"32 HEAD ST, FORSTER NSW 2428",FORSTER,2428,-32.1804788,152.5153738
NSW,1-3QRM216,Metro St Marys,metro st marys,"516-526 GREAT WESTERN HWY, ST MARYS NSW 2760",ST MARYS,2760,-33.7703353,150.7659511
NSW,1-3QS5P4K,Ampol Wallerawang,ampol wallerawang,"26 MAIN ST, WALLERAWANG NSW 2845",WALLERAWANG,2845,-33.40968157,150.06552061
NSW,1-3QUUGN9,Access Fuels,access fuels,"1-3 HI-TECH DR, TOORMINA NSW 2452",TOORMINA,2452,-30.3419763,153.0925656
NSW,1-3QWRIZQ,Endeavour Petroleum Pty Ltd,endeavour petroleum pty ltd,"12 REIFF ST, LAVINGTON NSW 2641",LAVINGTON,2641,-36.03803891,146.96657699
NSW,1-3QX6B4V,Shell Junee,shell junee,"1 Illabo Rd,, Junee NSW 2663",JUNEE,2663,-34.85706,147.58594
NSW,1-3QX6DFI,Metro Petroleum West Hoxton,metro petroleum west hoxton,"198 FIFTEENTH AV, WEST HOXTON NSW 2171",WEST HOXTON,2171,-33.9216299,150.8314757
NSW,1-3R6D8UK,Whiporie General Store,whiporie general store,"5351 SUMMERLAND WAY, WHIPORIE NSW 2469",WHIPORIE,5351,-29.2822515,152.9892076
NSW,1-3R6D9KE,"METRO PETROLEUM, WYEE","metro petroleum, wyee","147 WYEE RD, WYEE NSW 2259",WYEE,2259,-33.1760691,151.487607
NSW,1-3R6I0SJ,Jack & Co Lane Cove,jack & co lane cove,"203 BURNS BAY RD, LANE COVE NSW 2066",LANE COVE,2066,-33.814598,151.1543531
NSW,1-3R6X0DA,METCO PETROLEUM,metco petroleum,"40 MAITLAND RD, SINGLETON NSW 2330",SINGLETON,2330,-32.573288,151.1829947
NSW,1-3R6XDF5,Metro Petroleum Queanbeyan,metro petroleum queanbeyan,"65 THARWA RD, QUEANBEYAN WEST NSW 2620",QUEANBEYAN WEST,2620,-35.358299,149.2208023
NSW,1-3R6XMI2,AMPOL HOWLONG,ampol howlong,"150 HAWKINS ST, HOWLONG NSW 2643",HOWLONG,2643,-35.9816778,146.6391107
NSW,1-3R80JYQ,BP West Wyalong,bp west wyalong,"68 MAIN ST, WEST WYALONG NSW 2671",WEST WYALONG,2671,-33.9236849,147.2092311
NSW,1-3R8KEZU,Metro Eden,metro eden,"26 MITCHELL ST, EDEN NSW 2551",EDEN,2551,-37.0637747,149.9031027
NSW,1-3RACAV4,Metro Fuel Croydon Park,metro fuel croydon park,"274 GEORGES RIVER RD, CROYDON PARK NSW 2133",CROYDON PARK,2133,-33.8969265,151.103217
NSW,1-3REUIMU,Endeavour Corowa,endeavour corowa,"223 SANGER ST, COROWA NSW 2646",COROWA,2646,-35.99524357,146.39156242
NSW,1-3RJ4WLQ,Enhance Russell Vale,enhance russell vale,"115 BELLAMBI LANE, BELLAMBI NSW 2518",BELLAMBI,2518,-34.3612804,150.8994852
NSW,1-3ROZGWK,Metro Petroleum Hillside,metro petroleum hillside,"75 GYPSUM ST, BROKEN HILL NSW 2880",BROKEN HILL,2880,-31.9678035,141.4452954
NSW,1-3RP4Z5S,Metro Petroleum Macquarie Fields,metro petroleum macquarie fields,"2 ATCHISON RD, MACQUARIE FIELDS NSW 2564",MACQUARIE FIELDS,2564,-33.9892272,150.8822327
NSW,1-3RQAZ64,Ultra Kandos,ultra kandos,"60 DAVIES RD, KANDOS NSW 2848",KANDOS,2848,-32.8573774,149.9706615
NSW,1-3RV5UGA,Metro Petroleum (Kurri Kurri Lang St),metro petroleum (kurri kurri lang st),"307 LANG ST, KURRI KURRI NSW 2327",KURRI KURRI,2327,-32.82039,151.47686
NSW,1-3RV65EG,Legume Store,legume store,"9297 MOUNT LINDESAY RD, LEGUME NSW 2476",LEGUME,9297,-28.4053537,152.3067044
NSW,1-3RWSQSC,Enhance Eastwood,enhance eastwood,"2 LOVELL RD, EASTWOOD NSW 2122",EASTWOOD,2122,-33.7916291,151.0895436
NSW,1-3RXE07R,BP Uralla,bp uralla,"111 Bridge Street, Uralla NSW 2358",URALLA,2358,-30.64696,151.49219
NSW,1-3RZNUR1,Shell Luddenham,shell luddenham,"Lot 25/ 2140 The Northern Rd, Luddehham NSW 2745",LUDDEHHAM,2140,-33.8833419,150.69426
NSW,1-3S1ALOU,Transwest Fed Park,transwest fed park,"45 JEWRY ST, TAMINDA NSW 2340",TAMINDA,2340,-31.0841321,150.9105595
NSW,1-3S1TT33,Metro Petroleum St Andrews,metro petroleum st andrews,"95 BALLANTRAE DR, ST ANDREWS NSW 2566",ST ANDREWS,2566,-34.0207224,150.833198
NSW,1-3S4OBO3,BP GOULBURN (Merino Fuels),bp goulburn (merino fuels),"70 CLIFFORD ST, GOULBURN NSW 2580",GOULBURN,2580,-34.7521016,149.7178366
NSW,1-3S6FIKC,BP Roadhouse,bp roadhouse,"53 BOMBALA ST, NIMMITABEL NSW 2631",NIMMITABEL,2631,-36.5148161,149.2833475
NSW,1-3S8MIGC,Pearl Energy Medowie,pearl energy medowie,"UNIT 4 26 FERODALE RD, MEDOWIE NSW 2318",MEDOWIE,2318,-32.7401769,151.8544364
NSW,1-3SA88ER,Pearl Energy Mayfield,pearl energy mayfield,"132 MAITLAND RD, MAYFIELD NSW 2304",MAYFIELD,2304,-32.9017846,151.7419818
NSW,1-3SB14ZK,Mobil Dubbo,mobil dubbo,"2 HAWTHORN ST, DUBBO NSW 2830",DUBBO,2830,-32.2569346,148.6254902
NSW,1-3SBFBNN,Ampol Cowra,ampol cowra,"2 GRENFELL RD, COWRA NSW 2794",COWRA,2794,-33.8351555,148.6790614
NSW,1-3SBKSW0,ATTUNGA GENERAL STORE,attunga general store,"5 MANILLA RD, ATTUNGA NSW 2345",ATTUNGA,2345,-30.928946,150.8454976
NSW,1-3SG8B58,BP Howlong,bp howlong,"61 HAWKINS ST, HOWLONG NSW 2643",HOWLONG,2643,-35.9794913,146.6281492
NSW,1-3SL0LSG,Ampol Foodary Austral,ampol foodary austral,"68 KELLY ST, AUSTRAL NSW 2179",AUSTRAL,2179,-33.9477883,150.7932766
NSW,1-3SMG2NN,BP Narromine,bp narromine,"1 DANDALOO ST, NARROMINE NSW 2821",NARROMINE,2821,-32.22644,148.24005
NSW,1-3SPDE22,Mobil Wagga Wagga,mobil wagga wagga,"34 DOBNEY AV, WAGGA WAGGA NSW 2650",WAGGA WAGGA,2650,-35.1212607,147.345103
NSW,1-3SPDT5A,Candelo Service Station,candelo service station,"40 WILLIAM ST, CANDELO NSW 2550",CANDELO,2550,-36.7665018,149.696037
NSW,1-3SQ68BU,Metro petroleum Padstow,metro petroleum padstow,"69 DAVIES RD, PADSTOW NSW 2211",PADSTOW,2211,-33.9510689,151.0387597
NSW,1-3SQINMN,METRO PETROLEUM BELMONT,metro petroleum belmont,"SHOP 2 507 PACIFIC HWY, BELMONT NSW 2280",BELMONT,2280,-33.0326219,151.6611701
NSW,1-3SRLVAX,Enhance Camellia,enhance camellia,"17 GRAND AV, CAMELLIA NSW 2142",CAMELLIA,2142,-33.820505,151.0356357
NSW,1-3SRPZQK,Metro Petroleum South Hurstville,metro petroleum south hurstville,"928-930 KING GEORGES RD, BLAKEHURST NSW 2221",BLAKEHURST,2221,-33.9810848,151.1084759
NSW,1-3STBTUD,7-Eleven Ingleburn,7-eleven ingleburn,"4 LANCASTER ST, INGLEBURN NSW 2565",INGLEBURN,2565,-33.9896203,150.8667278
NSW,1-3SVWP73,Metro Petroleum Cooma,metro petroleum cooma,"42 SHARP ST, COOMA NSW 2630",COOMA,2630,-36.2329232,149.1311035
NSW,1-3SWDINH,Budget Petrol Telopea,budget petrol telopea,"57 ADDERTON RD, TELOPEA NSW 2117",TELOPEA,2117,-33.7934764,151.0412676
NSW,1-3SXYFQS,EG Ampol Oran Park Town Centre,eg ampol oran park town centre,"6 Fordham Way, Oran Park NSW 2570",ORAN PARK,2570,-33.9997358,150.73839
NSW,1-3SYIGX0,7-Eleven Muswellbrook,7-eleven muswellbrook,"31-33 MAITLAND ST, MUSWELLBROOK NSW 2333",MUSWELLBROOK,2333,-32.2705147,150.8882563
NSW,1-3TCG6UN,Ampol Barmedman Truck Stop,ampol barmedman truck stop,"92 Queen Street, Barmedman NSW 2668",BARMEDMAN,2668,-34.14243,147.3857
NSW,1-3TCG7B4,MOBIL COFFS HARBOUR,mobil coffs harbour,"178 PACIFIC HWY, COFFS HARBOUR NSW 2450",COFFS HARBOUR,2450,-30.2890435,153.1214843
NSW,1-3TKLFSL,Enhance Waratah,enhance waratah,"51 LAMBTON RD, WARATAH NSW 2298",WARATAH,2298,-32.9068601,151.7195128
NSW,1-3TL243O,Your Fuel,your fuel,"77 SANDGATE RD, BIRMINGHAM GARDENS NSW 2287",BIRMINGHAM GARDENS,2287,-32.8957578,151.6817711
NSW,1-3TRM6P9,Liberty Evans Head,liberty evans head,"70 WOODBURN ST, EVANS HEAD NSW 2473",EVANS HEAD,2473,-29.1140871,153.4283472
NSW,1-3TSY7CB,Ampol Foodary Coffs Harbour Halls Rd,ampol foodary coffs harbour halls rd,Corner Pacific Hwy and Halls Road Coffs Harbour NSW 2450,CORNER PACIFIC HWY AND HALLS ROAD COFFS HARBOUR,2450,-30.30597,153.101212
NSW,1-3TTLGT1,Metro Petroleum Leichhardt,metro petroleum leichhardt,"127-129 MARION ST, LEICHHARDT NSW 2040",LEICHHARDT,2040,-33.8839399,151.1507793
NSW,1-3TUL3H4,AMPOL TALBINGO,ampol talbingo,"321 MILES FRANKLIN DR, TALBINGO NSW 2720",TALBINGO,2720,-35.581244,148.2972276
NSW,1-3TVVV1H,BP Cundletown,bp cundletown,"45 MAIN ST, CUNDLETOWN NSW 2430",CUNDLETOWN,2430,-31.8981907,152.5177908
